,축제명,개최장소,축제시작일자,축제종료일자,축제내용,주최기관,전화번호,주소,위도,경도
918,해변가요제,울릉군 저동항,2022-07-29,2022-07-30,해변가요제,울릉청년단,054-790-6426,울릉군 울릉읍 저동리,37.4955239,130.9097003
919,울릉도오징어축제,울릉군 일원,2022-08-27,2022-08-29,오징어축제,울릉군축제위원회,054-790-6426,울릉군 울릉읍 저동리,37.4955239,130.9097003
917,회당문화축제,울릉군 도동항,2022-06-27,2022-06-29,회당문화축제,대한불교진각종,054-790-6426,울릉군 울릉읍 도동1길 5-42,37.4819992,130.9082172
915,달맞이축제,울릉예술문화체험장(구.장흥초등학교),2022-02-15,2022-02-15,달집태우기,정월대보름 장흥달맞이 놀이마당추진위원회,054-790-6426,경상북도 울릉군 울릉읍 옥천길 8,37.47367561,130.8875026
914,민속그네뛰기,사동 자생식물원,2022-06-03,2022-06-03,그네뛰기,울릉문화원,054-790-6426,경상북도 울릉군 울릉읍 간령길 83-18,37.46024044,130.8735494
916,태하성하신당제,서면 태하 성하신당,2022-04-12,2022-04-12,기원행사,울릉문화원,054-790-6426,경상북도 울릉군 서면 태하길 154,37.51222566,130.800884
174,영덕물가자미축제,축산항 일원,2019-04-25,2019-04-28,물가자미 홍보 및 체험 축제,경상북도청+경상북도 영덕군청,054-730-6092,경상북도 영덕군 축산면 축산리 216-3,36.509106,129.446771
1389,국악의 향연,꽃바위문화관 3층 다목적공연장,2021-05-24,2021-05-24,국악,꽃바위문화관,052-209-4330,울산광역시 동구 문현3길 6,35.48705813,129.4112633
1390,리차드 로의 재즈톡,꽃바위문화관 3층 다목적공연장,2021-06-24,2021-06-24,재즈,꽃바위문화관,052-209-4330,울산광역시 동구 문현3길 6,35.48705813,129.4112633
1391,나 때는 말이야,꽃바위문화관 3층 다목적공연장,2021-07-22,2021-07-22,힙합,꽃바위문화관,052-209-4330,울산광역시 동구 문현3길 6,35.48705813,129.4112633
1392,힐링 개그 콘서트,꽃바위문화관 3층 다목적공연장,2021-08-26,2021-08-26,개그x싱어롱,꽃바위문화관,052-209-4330,울산광역시 동구 문현3길 6,35.48705813,129.4112633
1393,오페라 팝페라 뽕페라,꽃바위문화관 3층 다목적공연장,2021-09-30,2021-09-30,콘서트,꽃바위문화관,052-209-4330,울산광역시 동구 문현3길 6,35.48705813,129.4112633
1394,박강수콘서트,꽃바위문화관 3층 다목적공연장,2021-10-21,2021-10-21,콘서트,꽃바위문화관,052-209-4330,울산광역시 동구 문현3길 6,35.48705813,129.4112633
1396,퓨전 국악의 향연,꽃바위문화관 3층 다목적공연장,2023-05-19,2023-05-19,국악,울산광역시 동구,052-209-4330,울산광역시 동구 문현3길 6,35.48705813,129.4112633
105,울진 친환경농산물 축제(예정),울진 연호공원,2022-09-30,2022-10-03,친환경농산물 축제,경상북도 울진군,054-789-6742,경상북도 울진군 울진읍 연지리 820-75,36.9934345,129.4070805
172,영덕대게축제,경상북도 영덕군 강구항 해파랑공원,2021-12-27,2021-12-31,영덕대게 홍보 및 체험축제,경상북도 영덕군청+영덕대게축제추진위원회,054-730-6393,경상북도 영덕군 강구면 강구리 232-43,36.360209,129.391384
171,해맞이축제,영덕삼사해상공원,2021-12-31,2022-01-01,경북대종타종식 및 영덕해맞이축제,경상북도청+경상북도 영덕군청,054-730-6393,경상북도 영덕군 강구면 삼사리 158-3,36.350455,129.3854643
1185,울산고래축제,장생포 고래문화특구 일원,2023-05-11,2023-05-14,"고래문화를 계승하고 보전하기 위해, 고래의 본고장 울산에서 열리는 힐링 페스티벌",울산광역시 남구청,052-226-1999,울산광역시 남구 장생포고래로 244,35.5027537,129.38079
1041,포항거리예술축제,송도 솔밭 도시 숲 및 송도동 일대,2022-10-21,2022-10-23,"거리예술 공연, 공공미술전시, 숲속 도서관, 거리예술 교육프로그램 운영",포항시,054-289-7873,경상북도 포항시 남구 송도해안길 112번길 3,36.04036853,129.3766797
173,영덕황금은어축제,오십천 둔치 일원,2022-07-29,2022-07-31,황금은어 홍보 및 체험 축제,경상북도청+경상북도 영덕군청,054-730-6586,경상북도 영덕군 영덕읍 화개리 644,36.41846472,129.3641712
1183,간절곶 해맞이 축제,울주군 서생면 간절곶 공원 일원,2023-12-31,2024-01-01,간절곶은 새해 한반도 육지부에서 해가 가장 먼저 뜨는 곳으로 매년 축제 때 마다 전국에서 관광객들이 방문한다.,울산광역시 울주군청,052-204-0315,울산광역시 울주군 서생면 간절곶1길 39-2,35.3589245,129.3602963
1320,2023년 울산병영3.1만세운동 제23회 재현행사,울산 중구 병영 일원,2023-04-05,2023-04-06,위령제+추모제+삼일만세운동재현행사+부대행사,중구문화원,052-290-3664,울산광역시 중구 병영성13길 2,35.57492612,129.3454467
623,울산쇠부리축제,달천철장 일원,2022-05-13,2022-05-15,한반도 최초의 철산지 달천철장에서 펼처지는 철문화축제,울산광역시 북구청 문화체육과,052-293-3500,울산광역시 북구 달천철장길 58,35.63424081,129.3289893
1177,울산쇠부리축제,달천철장 일원,2023-05-12,2023-05-14,체험+전시+학술,울산광역시 북구청,052-293-3500,울산광역시 북구 달천철장길 58,35.63421726,129.3289893
1184,울산쇠부리축제,달천철장 일원,2023-05-12,2023-05-14,한반도 최초의 철산지 달천철장에서 펼처지는 철문화축제,울산광역시 북구청,052-293-3500,울산광역시 북구 달천철장길 58,35.63424081,129.3289893
1317,2023 태화강마두희축제,울산 중구 성남동 일원,2023-06-23,2023-06-25,큰줄다리기+부대행사,태화강마두희축제추진위원회,052-290-3662,울산광역시 중구 시계탑거리 4,35.55511722,129.3216061
1318,2023년 외솔한글한마당,외솔기념관 및 중구 원도심 일원,2023-10-06,2023-10-09,한글을 주제로 한 전시+체험+경연+공연,ubc 울산방송,052-290-3642,울산광역시 중구 시계탑거리 4,35.55511722,129.3216061
1319,2023 문화의거리 현대미술제,울산 중구 문화의거리,2023-05-13,2023-05-21,갤러리+거리 미술작품 전시,경상일보,052-290-3666,울산광역시 중구 시계탑거리 4,35.55511722,129.3216061
1181,2023년 울산공업축제,태화강국가정원+남구둔치 일원,2023-06-01,2023-06-04,"울산의 과거와 현재, 미래를 보여주고 산업도시 울산의 정체성을 나타내는 울산의 대표축제",울산광역시,052-259-2728,울산광역시 남구 신정동 1513,35.55056694,129.3077348
1187,태화강 국가정원 봄꽃축제,태화강 국가정원,2023-05-19,2023-05-21,6천만 송이 봄꽃 물결과 함께하는 태화강 국가정원 봄꽃 전시,울산광역시,052-229-7561,울산광역시 중구 태화강국가정원길 154,35.548823,129.291263
597,울산대공원 장미축제,울산대공원 장미원,2023-05-24,2023-05-28,대한민국 최고의 장미원에서 펼쳐지는 울산대공원 장미축제,SK이노베이션,052-229-3341,울산광역시 남구 옥동 산138,35.52889099,129.2881058
1225,울산옹기축제,울주군 외고산옹기마을일원,2023-05-05,2023-05-07,웰컴투옹기마을(옹기주제전시+창작공연+옹기토크+옹기테마거리등),(재)울주문화재단,052-204-0355,울산광역시 울주군 온양읍 외고산3길 36,35.435069,129.2795088
3,울산옹기축제,온라인 축제,2022-09-30,2022-10-03,"국내 유일의 옹기특화 축제, 온라인비대면축제",울산광역시 울주군청 관광과,052-204-0355,울산광역시 울주군 온양읍 외고산2길 2-13,35.43299143,129.2784466
1182,울산옹기축제,외고산 옹기마을 일원,2023-05-05,2023-05-07,국내 유일의 옹기특화 축제,울산광역시 울주군청,052-204-0355,울산광역시 울주군 온양읍 고산리 512-4,35.43299143,129.2784466
1186,궁거랑 벚꽃 한마당,남구 무거생태하천 일원,2023-04-01,2023-04-02,울산광역시 남구 삼호동 무거생태하천에서 매년 3~4월에 개최하는 문화 행사,울산제일일보,052-226-5412,울산광역시 남구 삼호로 15,35.5500212,129.266004
620,2022 동아시아문화도시 경주 폐막식,경주예술의전당일원,2022-11-18,2022-11-18,식전공연+폐막선언및퍼포먼스+한중일공연등,경상북도경주시,054-760-2626,경상북도 경주시 양정로 260,35.85619961,129.2247246
1367,삼척맹방유채꽃행사,근덕면 상맹방리 유채밭 일대,2023-04-07,2023-04-16,농축특산물 판매장 및 향토 먹거리장터 운영+유채꽃 사진전+유채꽃따라 걷기대회 등(코로나-19 확산방지로 행사취소),삼척맹방유채꽃축제위원회,033-570-3375,강원도 삼척시 근덕면 삼척로 3916-112(마을회관),37.40072352,129.2117828
490,어린이날 가족한마당,서창운동장,2022-05-05,2022-05-05,"(축제취소)공연, 참여 및 체험부스, 사생대회 등",웅상청년회의소,055-392-6172,경상남도 양산시 대운9길 16-85,35.41161583,129.1822946
1372,삼척평생학습박람회 및 책축제,문화예술회관일원,2023-10-21,2023-10-22,개막식+평생학습유공자 포상+체험 홍보부스 운영+작품전시+공연 발표+책관련 행사 등,강원도 삼척시청,033-570-4432,강원도 강원도 삼척시청 청석로3길 16-41,37.44912555,129.1780308
1369,삼척장미축제,삼척장미공원 일원,2023-05-20,2023-05-24,공연+먹거리+체험+기타,강원도 삼척시청,033-570-3082,강원도 강원도 삼척시청 오십천로 536,37.43501045,129.1752024
1370,삼척비치썸페스티벌,삼척해변 일원,2023-07-26,2023-07-30,공연+먹거리+체험+기타,강원도 삼척시청,033-570-3081,강원도 강원도 삼척시청 테마타운길 19,37.46667271,129.1705322
1371,삼척동해왕이사부축제,이사부광장 일원,2023-10-06,2023-10-08,공연+퍼레이드+체험+연계행사 등,강원도 삼척시청,033-570-3073,강원도 강원도 삼척시 엑스포로 45,37.44988816,129.1656266
1339,2023 해운대카운트다운&해맞이축제,"해운대해수욕장, 구남로 등",2023-01-01,2023-01-01,카운트다운 행사+해맞이 행사+부대 프로그램 등,부산광역시 해운대구청,051-749-4062,부산광역시 해운대구 중동2로 11,35.16313992,129.1635303
1340,제38회 해운대 달맞이온천축제,해운대해수욕장,2023-02-03,2023-02-05,길놀이 행사+달집태우기+개막행사+무대공연 등,사단법인 해운대지구발전협의회,051-749-4062,부산광역시 해운대구 중동2로 11,35.16313992,129.1635303
1341,제18회 해운대 모래축제,"해운대 해수욕장, 구남로",2023-05-19,2023-05-22,모래작품 전시+체험프로그램+플라워카펫 등,부산광역시 해운대구청,051-749-4062,부산광역시 해운대구 중동2로 11,35.16313992,129.1635303
1342,제18회 국제매직페스티벌,"해운대해수욕장,구남로",2023-07-01,2023-07-01,매직버스킹공연+무대공연+경연대회 등,부산국제매직페스티벌조직위원회,051-749-4061,부산광역시 해운대구 중동2로 11,35.16313992,129.1635303
1343,제7회 반송한마음축제,반송동 일원,2023-07-01,2023-07-01,개막행사+무대공연 등,반송한마음축제위원회,051-749-4061,부산광역시 해운대구 중동2로 11,35.16313992,129.1635303
1344,제27회 부산바다축제,해운대해수욕장,2023-08-01,2023-08-01,개막행사+무대공연 등,부산광역시,051-749-4061,부산광역시 해운대구 중동2로 11,35.16313992,129.1635303
1345,송정해변축제,송정해수욕장 일원,2023-08-01,2023-08-01,개막행사+무대공연 등,송정축제조직위원회,051-749-4061,부산광역시 해운대구 중동2로 11,35.16313992,129.1635303
1346,달맞이언덕 인문학 축제,"어울마당, 추리문학관 등",2023-10-01,2023-10-01,인문학 강연+무대공연 등,해운대포럼,051-749-4064,부산광역시 해운대구 중동2로 11,35.16313992,129.1635303
1347,제20회 담안골 문화축제,반송동 일원,2023-10-01,2023-10-01,개막행사+무대공연 등,반송지구발전협의회,051-749-4061,부산광역시 해운대구 중동2로 11,35.16313992,129.1635303
1348,장산제,장산 일원,2023-10-01,2023-10-01,개막행사+무대공연 등,해운대를 사랑하는 모습,051-749-4061,부산광역시 해운대구 중동2로 11,35.16313992,129.1635303
1349,제11회 재송포축제,재송동 일원,2023-10-01,2023-10-01,개막행사+무대공연 등,재송발전협의회,051-749-4064,부산광역시 해운대구 중동2로 11,35.16313992,129.1635303
1350,동백섬문화관광축제,동백섬 일원,2023-10-01,2023-10-01,최치원추념헌공다례+기로연진다례 등,해운대문화예술원,051-749-4064,부산광역시 해운대구 중동2로 11,35.16313992,129.1635303
1351,제10회 수영강변축제,수영강시민공원,2023-10-01,2023-10-01,개막행사+무대공연 등,수영강변축제위원회,051-749-4061,부산광역시 해운대구 중동2로 11,35.16313992,129.1635303
1352,제18회 부산불꽃축제,"동백섬, 마린시티 일원",2023-11-01,2023-11-01,불꽃쇼+무대공연 등,부산광역시,051-749-4062,부산광역시 해운대구 중동2로 11,35.16313992,129.1635303
1353,제10회 해운대 빛축제,"구남로, 해운대해수욕장, 등",2023-12-01,2023-12-01,빛시설물 전시+체험프로그램 등,부산광역시 해운대구청,051-749-4062,부산광역시 해운대구 중동2로 11,35.16313992,129.1635303
1354,제36회 해운대북극곰축제,해운대해수욕장 일원,2023-12-01,2023-12-01,북극곰 수영대회+체험프로그램+무대공연 등,부산일보,051-749-4064,부산광역시 해운대구 중동2로 11,35.16313992,129.1635303
1355,2024 카운트다운&해맞이 축제,해운대해수욕장 일원,2023-12-31,2024-01-01,카운트다운 행사+해맞이 행사+부대 프로그램 등,부산광역시 해운대구청,051-749-4062,부산광역시 해운대구 중동2로 11,35.16313992,129.1635303
1366,삼척정월대보름제,우체국일원,2023-02-03,2023-02-05,개막식+제례행사+문화재행사+민속놀이행사 등 9개분야 46종,강원도 삼척시청,033-573-2882,강원도 강원도 삼척시청 엑스포로 45,37.43896231,129.160145
1368,황영조 국제 마라톤 대회,엑스포광장~근덕면 일원,2023-05-21,2023-05-21,황영조 국제 마라톤 대회,강원일보,033-570-3813,강원도 강원도 삼척시청 엑스포로 45,37.43896231,129.160145
1374,삼척종합예술제,문화예술회관 등 4개소,2022-09-30,2022-10-08,(사)한국예총 삼척지회 산하 7개 협회 공연+전시 등 행사 추진,(사)한국예총 삼척지회,033-570-3224,강원도 강원도 삼척시청 엑스포로 45,37.43896231,129.160145
1375,삼척민족예술제,문화예술회관일원,2022-09-26,2022-09-30,역사이야기 삼척 그.때.그.날(융복합극) 및 전시(사진+한지공예+섬유공예+인형+미술 등) 및 체험교실,(사)강원민예총 삼척지부,033-570-3224,강원도 강원도 삼척시청 엑스포로 45,37.43896231,129.160145
488,2022 양산웅상회야제,웅상체육공원,2022-05-14,2022-05-15,"(축제취소)개막식, 폐막식, 공연, 시민참여 행사 등",양산웅상회야제추진위원회,055-392-6183,경상남도 양산시 배움터길 60-19,35.37762612,129.1434299
491,부산불꽃축제,광안리해변,2023-11-04,2023-11-04,해외초청 불꽃쇼+첨단멀티 불꽃쇼,부산광역시청,051-888-5222,부산광역시 수영구 광안해변로 219,35.15377357,129.1185161
1382,제18회 영양산나물축제,영양군청 일원,2023-05-11,2023-05-14,판매+체험+공연+부대행사,경상북도 영양군청,054-680-6411,경상북도 영양군 영양읍 군청길 37,36.66735774,129.1126844
202,광안리어방축제,수영구 광안리해변 일원,2022-10-14,2022-10-16,뮤지컬어방+경상좌수사행렬전시 등,수영구축제위원회,051-610-4062,부산광역시 수영구 남천동로100,35.14537016,129.1123694
408,제21회어방축제,광안리해변일원,2023-05-12,2023-05-14,광안리어방축제,부산광역시 수영구청,051-610-4062,부산광역시 수영구 남천동로100,35.14537016,129.1123694
185,동해무릉제,동해웰빙레포츠타운,2023-09-22,2023-09-24,개막식+퍼레이드+공연행사+체험행사+동대항 민속경기+민속예술시연,강원특별자치도 동해시청,033-530-2111,강원특별자치도 동해시 덕골길 10,37.51606095,129.1021986
933,제24회 UN평화축제,평화공원(대연동 707),2022-10-15,2022-10-16,무대+체험+전시+부대행사,부산광역시 남구,,부산광역시 남구 대연동 707,35.12623753,129.1004335
1365,2022 지금여기 금정 관광후기 이벤트,금정구 일대,2022-02-01,2022-11-30,금정을 여행하는 누구나 나만의 금정 관광후기를 공유하고 타인의 관광후기를 공유 받을 수 있음,부산광역시 금정구청 문화관광과,051-519-4081,부산광역시 금정구 중앙대로 1777,35.2428426,129.0921739
203,동래읍성역사축제,동래문화회관+읍성광장+온천장 일원,2022-10-14,2022-10-16,동래부사행차 길놀이+동래성 전투 뮤지컬+동래세가닥줄다리기+동래장터 체험 등,부산광역시 동래구청,051-550-4094,부산광역시 동래구 문화로 80(명륜동),35.21195069,129.090546
388,동래읍성역사축제,동래문화회관+읍성광장+온천장 일원,2023-10-13,2023-10-15,동래부사행차길놀이+동래성저전투재현 뮤지컬+동래세가닥줄다리기+동래장터 체험 등,부산광역시 동래구청,051-550-4094,부산광역시 동래구 문화로 80(명륜동),35.21195069,129.090546
270,제4회 연제고분판타지축제,온천천시민공원 및 연산동 고분군,2023-03-31,2023-04-02,역사문화행사,연제구축제추진위원회,051-665-4065,부산광역시 연제구 거제동 1466-24,35.19588064,129.082826
204,영도다리축제,아미르공원+영도일원+영도다리축제유튜브채널,2022-10-14,2022-10-16,개막주제공연+축하공연+불꽃쇼+퍼레이드+체험행사 등,부산광역시 영도구청,051-419-4064,부산광역시 영도구 동삼동 1165,35.07714964,129.0820078
737,영도다리축제,아미르공원+영도일원+영도다리축제유튜브채널,2023-10-13,2023-10-15,개막주제공연+축하공연+불꽃쇼+퍼레이드+체험행사 등,부산광역시 영도구청,051-419-4064,부산광역시 영도구 해양로 301번길 55,35.07714964,129.0820078
738,영도커피페스티벌,아미르공원,2023-11-03,2023-11-05,개막주제공연+축하공연+체험행사 등,부산광역시 영도구청,051-419-6332,부산광역시 영도구 해양로 301번길 55,35.07714964,129.0820078
1048,전포커피축제,전포카페거리 일원,2023-10-13,2023-10-15,전포 코오피 스쿨+아바타투어 등 부산진구 SNS를 활용한 다양한 체험+이벤트 프로그램 운영,부산광역시 부산진구청,051-605-4524,부산광역시 부산진구 동천로 92(전포동),35.1570356,129.0630291
736,봉래산발복기원제,봉래산 헬기장,2023-06-11,2023-06-11,개회식+기원제+길놀이+의식공연+음복례 등,봉래산발복기원제추진위원회,051-419-5722,부산광역시 영도구 벚꽃길 1,35.08646003,129.0590783
1364,2022 금정산성축제,금정산성광장 일원,2022-10-29,2022-10-30,개막식+주제공연+전시·체험마당+연계행사 등,부산광역시 금정구청,051-519-4062,부산광역시 금정구 금성동 682,35.2452813,129.0570297
1146,청송사과축제,청송읍 용전천 변(현비암 일원),2022-11-09,2022-11-13,공연+경연+체험+전시+판매,경상북도 청송군청,054-870-6237,경상북도 청송군 청송읍 월막리 368-2,36.43271991,129.0554862
1049,부산 희망 드림 빛축제,서면1번가 일원,2023-10-13,2024-01-31,테마별 빛 시설물 조성 + 문화예술 프로그램 운영,부산광역시 부산진구청,051-605-4522,부산광역시 부산진구 시민공원로30 (범전동),35.16283064,129.053188
406,2022 양산삽량문화축전,양산천둔치 일원 및 양산종합운동장,2022-09-30,2022-10-01,"공식공연, 양산 다시 삽량에서 通하다(공연/전시.체험), 맛있는즐거움, 부대행사 등",경상남도 양산시청,055-392-2543,경상남도 양산시 양산대로 849,35.34855992,129.0354984
1115,2022 양산봄꽃축제,신기동 양산천둔치 유채꽃단지 일원,2022-04-05,2022-04-13,"(축제취소)튤립동산, 포토존, 풍차, 꽃탑 등",경상남도 양산시청,055-392-5343,경상남도 양산시 신기강변로 26(신기동),35.35002163,129.0341247
300,제23회 정동진독립영화제,정동초등학교 운동장,2022-09-23,2022-09-26,야외 독립영화제(슬로건: 별이 지는 하늘 영화가 뜨는 바다),강릉씨네마떼끄+한국영상자료원,033-645-7415,강원도 강릉시 강동면 헌화로 1055,37.68735318,129.0336174
576,부산시민의종 타종식,용두산공원,2023-12-31,2024-01-01,시민의종 타종+문화공연,부산광역시청,051-888-5224,부산광역시 중구 용두산길 37-55(광복동2가),35.10093242,129.0324385
668,부산원도심골목길축제,동구+영도구(예정),2023-05-20,2023-05-21,테마별 체험 프로그램 등,부산광역시청,051-888-5221,부산광역시 중구 중구로 120(대청동1가),35.10619736,129.0323514
1338,광복로겨울빛트리축제,광복로 및 중구 관내 일원,2023-12-01,2024-01-31,일루미네이션 크리스마스트리장식+성탄음악행사+시민참여행사+점등식 등,부산광역시 중구청,051-464-0112,부산광역시 중구 광복중앙로 2,35.0995432,129.0314651
1337,부산자갈치축제,자갈치시장 및 유라리광장 일원,2023-10-12,2023-10-15,개막식+길놀이+체험프로그램 등,(사)부산자갈치문화관광축제위원회,051-243-9363,부산광역시 중구 자갈치해안로 52,35.0966394,129.0305933
1336,부산국제영화제 전야제,BIFF광장일원,2023-10-04,2023-10-04,축하공연,(사) 부산국제영화제,051-709-2091,부산광역시 중구 비프광장로 36,35.09862035,129.0287588
1335,보수동책방골목문화축제,보수동책방골목 및 문화관,2023-10-13,2023-10-15,책읽는마을 심포지엄+공연행사+체험 등,보수동 책방골목 번영회,051-253-7220,부산광역시 중구 흑교로46번길 11,35.10362715,129.0261809
273,현인가요제,송도해수욕장,2023-08-04,2023-08-06,개막행사+현인가요제 전야제+현인가요제 본선,(사)한국연예예술인협회,02-2655-3157,부산광역시 서구 송도해변로 100,35.07682117,129.0180502
828,태백산 눈축제,태백산국립공원+황지연못 일원,2022-01-10,2022-01-19,눈조각대회+눈꽃등반대회+체험행사+공연 등,태백시문화재단,033-553-6900,강원도 태백시 장성1길 171,37.10051315,129.0082172
995,삼수 매봉산 바람개비 축제,매봉산 일원,2022-08-05,2022-08-07,공연+체험프로그램+부스 운영 등,삼수동축제위원회,033-552-1376,강원도 태백시 장성1길 171,37.10051315,129.0082172
996,장성탄탄축제활기찬동행,장성중앙시장 일원,2022-09-24,2022-09-25,공연+체험프로그램+부스 운영 등,징성동주민자치위원회,033-581-6903,강원도 태백시 장성1길 171,37.10051315,129.0082172
997,태백 황지연못 황부자며느리 축제,횡지연못(문화광장) 일원,2022-09-23,2022-09-25,마당극+걷기행사+가요제+야시장,황부자며느리축제위원회,033-552-1370,강원도 태백시 장성1길 171,37.10051315,129.0082172
998,철암 단풍축제,철암단풍군락지 일원,2022-10-14,2022-10-16,단풍길 걷기대회+전시회+먹거리 장터 등,철암단풍축제위원회,033-582-7906,강원도 태백시 장성1길 171,37.10051315,129.0082172
999,태백산 눈축제,태백산국립공원+황지연못 일원,2023-01-01,2023-01-01,눈조각대회+눈꽃등반대회+체험행사+공연 등,태백시문화재단,033-553-6900,강원도 태백시 장성1길 171,37.10051315,129.0082172
1100,태백 커플축제,통리 태양의 후예 공원 일원,2022-09-17,2022-09-18,문화공연+체험행사+커플이벤트 등,"황연동, 황연동주민자치위원회",033-552-1371,강원도 태백시 장성1길 171,37.10051315,129.0082172
1101,한강 낙동강 발원지 축제,황지연못(문화광장)+중앙로+ 검룡소 등,2022-07-29,2022-08-07,물놀이난장+공연+체험행사+부스 운영 등,태백시문화재단,033-553-6900,강원도 태백시 장성1길 171,37.10051315,129.0082172
1140,구문소용축제,구문소관광단지 일원,2022-08-13,2022-08-14,용신제+전통공연+체험프로그램,구문소축제위원회,033-581-6904,강원도 태백시 장성1길 171,37.10051315,129.0082172
389,영천보현산별빛축제,보현산천문과학관 일원,2023-10-07,2023-10-09,천문·우주·과학 관련 온오프라인 콘텐츠 운영+천문학 강의+스타파티+각종 참여 프로그램 등,영천보현산별빛축제위원회,054-330-6702,경상북도 영천시 화북면 별빛로 681-32,36.1402561,128.9964736
1093,제9회 낙동강 구포나루 축제,화명생태공원 연꽃단지 일원,2022-10-28,2022-10-30,개막식+체험+공연+전시등,부산광역시 북구청,051-309-4522,부산광역시 북구 낙동대로1570번길 33(구포동),35.19688402,128.9900968
486,양산시청소년한마음축제,황산공원,2022-09-06,2022-09-06,"(연기)기념식, 축하공연, 전국청소년동아리경연대회, EDM파티 등",경상남도 양산시 청소년회관,055-392-4702,경상남도 양산시 낙동로 295-9,35.30173083,128.9895949
487,2022 양산 월드 힙합 어벤져스,황산공원,2022-05-27,2022-05-29,"개막식, 축하공연, 힙합댄스 경연대회, DJ/EDM파티 등",경상남도 양산시청,055-392-2544,경상남도 양산시 낙동로 295-9,35.30173083,128.9895949
1114,2022 물금 벚꽃 축제,양산시 황산공원 일원,2022-03-26,2022-03-30,"(비대면)축하공연, 공연행사, 지역주민참여행사, 문화전시행사 등",경상남도 양산시청,055-392-7012,경상남도 양산시 낙동로 295-9,35.30173083,128.9895949
818,강서 낙동강30리 벚꽃축제(2023년),대저생태공원,2023-03-31,2023-04-02,벚꽃길 걷기대회/체험행사/문화행사,부산광역시 강서구청,051-970-4062,부산광역시 강서구 대저1동 1-17,35.20933921,128.9865079
484,배내골고로쇠축제,배내골홍보관,2022-03-26,2022-03-27,"(축제취소)고로쇠 시음회, 체험행사, 문화공연 등",배내골주민자치위원회,055-392-3232,경상남도 양산시 원동면 배내로 431,35.4865568,128.985548
667,낙동강유채꽃축제,대저생태공원,2023-04-08,2023-04-16,축제취소,부산광역시청,051-888-5221,부산광역시 강서구 공항로 1246(대저1동),35.20985086,128.9845591
282,제20회 사상전통달집놀이,삼락생태공원,2023-02-05,2023-02-05,정월대보름행사,부산광역시 사상구청,051-310-4062,부산광역시 사상구 낙동대로 1310번길 19(삼락동),35.17701002,128.9776397
283,제20회 사상강변축제,삼락생태공원,2023-10-21,2023-10-22,사상강변축제,부산광역시 사상구청,051-310-4062,부산광역시 사상구 낙동대로 1310번길 19(삼락동),35.17701002,128.9776397
577,부산국제록페스티벌,삼락생태공원,2023-10-07,2023-10-08,록밴드 초청공연 등,부산광역시청,051-888-5221,부산광역시 사상구 낙동대로 1231,35.17001086,128.9765693
1096,사하예술제,을숙도문화회관 일원,2022-09-23,2022-09-29,전시+공연+체험프로그램+연계 행사 등,부산광역시 사하구청,051-220-4062,부산광역시 사하구 낙동남로1233번길 25,35.110059,128.9449571
485,원동매화축제,원동마을 일원,2022-03-02,2022-03-20,"(비대면)원동매화 나무 분양 이벤트, 원동매화 사진/영상 공모 기획전",원동매화축제추진위원회,055-392-2548,경상남도 양산시 원동면 원동로 2220,35.42085217,128.9410364
1116,원동미나리축제,원동 함포마을 일원,2022-03-01,2022-03-31,"(축제취소)미나리 시식회 및 특산물 판매, 원동미나리 직판장 개설운영",원동청정미나리연구회,055-392-3232,경상남도 양산시 원동면 원동로 1708,35.38015379,128.9211173
29,2022 강릉누들축제,강릉 월화거리 일원(홈플러스 방면),2022-12-16,2022-12-18,"누들 쿠킹쇼, 쿠킹클래스, 시식회, 대형 수제비 만들기 등",강원도 강릉시청,033-640-5130,강원도 강릉시 경강로 2112,37.75538612,128.8981649
28,2022 강릉와인축제,강릉 월화거리 일원(문선빌딩 방면),2022-12-09,2022-12-11,도전 와인 골든벨+선셋 와인 아워+시음존 등 운영,강원도 강릉시청,033-647-6802,강원도 강릉시 경강로 2111,37.75589225,128.8974693
1000,강릉단오제,강릉시 남대천 단오장 및 지정행사장,2022-05-30,2022-06-06,문화재행사+단오TV+전시+시민참여행사+단오유스페스티벌+온라인 챌린지 행사 등,(사)강릉단오제위원회+(사)강릉단오제보존회,033-641-1593,강원도 강릉시 단오장길 1 (노암동),37.74820212,128.8950714
14,강릉커피축제,강릉대도호부 관아지 등,2022-10-07,2022-10-10,"커피경연대회(바리스타, 핸드드립, 커핑, 마카롱) , 커피체험(로스팅, 추출, 커핑, 공예품 등), 전시, 공연 등",강릉시,033-647-6802,강원도 강릉시 임영로131번길 6 (용강동),37.75294455,128.8919029
26,강릉커피축제,강릉대도호부 관아지 등,2022-10-06,2022-10-09,커피경연대회(바리스타+핸드드립+커핑+마카롱)+커피체험(로스팅+추출+커핑+공예품 등)+전시+공연 등,강원도 강릉시청,033-647-6802,강원도 강릉시 임영로131번길 6 (용강동),37.75294455,128.8919029
301,강릉문화재야행,강릉대도호부관아(사적388호),2022-11-11,2022-11-13,역사문화시설 개방 및 전시.체험.공연 프로그램 운영(8가지 밤의 테마와 32개 프로그램),강원도 강릉시청,033-823-3212,강원도 강릉시 임영로131번길 6 (용강동),37.75294455,128.8919029
27,전국생활문화축제 in강릉,강릉명주예술마당,2022-10-27,2022-10-30,전국 생활문화 활동 발표+기획 프로그램 등,강원도 강릉시청,033-647-6808,강원도 강릉시 경강로 2021번길9-1,37.75040333,128.8898121
146,2021 꿈의 오케스트라 강릉 언택트 연주회 향상더하기,강릉문화TV,2021-08-31,2021-09-07,꿈의 오케스트라 강릉 언택트 연주회「향상더하기」,강원도 강릉시청,033-823-3214,강원도 강릉시 하슬라로 96 강릉문화원,37.75863,128.873881
844,가야문화축제(예정),수릉원+대성동 고분군+가야의거리 일원,2023-04-20,2023-04-23,공식+민속+축제+체험+설치+부대 연계행사,경상남도 김해시청,055-330-3944,경상남도 김해시 가야의길 126,35.23606039,128.8730826
846,김해평생학습과학축제,수릉원+대성동 고분군+가야의거리 일원,2022-10-22,2022-10-23,전시+축제+체험 설치+부대행사,김해평생학습과학축제운영위원회,055-330-4883,경상남도 김해시 가야의길 126,35.23606039,128.8730826
601,김해분청도자기축제,김해분청도자박물관+김해도자판매전시관,2022-10-21,2022-10-30,의식+특별전시+판매+부대행사,경상남도 김해시청,055-330-3244,경상남도 김해시 진례면 진례로 275-35,35.25149561,128.745857
845,김해분청도자기축제,김해분청도자박물관+김해도자판매전시관,2022-10-21,2022-10-30,의식+특별전시+판매+부대행사,경상남도 김해시청,055-330-3244,경상남도 김해시 진례면 진례로 275-35,35.25149561,128.745857
784,봉화은어축제,경상북도 봉화군 봉화읍 내성천 일원,2023-07-29,2023-08-06,은어반두잡이+맨손잡이 체험 등,경상북도 봉화군청,054-674-3053,경상북도 봉화군 봉화읍 내성리 506,36.89039738,128.7379707
785,봉화송이축제,경상북도 봉화군 봉화읍 내성천 일원,2023-09-21,2023-09-24,송이채취+시식회 등,경상북도 봉화군청,054-674-3053,경상북도 봉화군 봉화읍 내성리 506,36.89039738,128.7379707
1200,제15회 청도유등제,청도천둔치,2023-06-03,2022-06-03,유등 점등 및 무대+체험+전시 행사 등,청도유등제봉행위원회,054-372-6534,경상북도 청도군 화양읍 송북리 98-3,35.65498121,128.7372391
45,양지암축제,능포수변공원,2022-09-24,2022-09-24,가수 초청공연+노래자랑 등 화합행사+민속체험행사가 펼쳐지는 주민 화합 축제,거제시 능포동주민자치회,055-639-3797,경상남도 거제시 능포동 564-25,34.88646521,128.735617
766,안심창조밸리 연꽃마을 축제,안심창조밸리 일원,2023-08-12,2023-08-15,연꽃길 힐링걷기대회+관련 문화행사,안심창조밸리 주민협의체,053-964-2901,대구광역시 동구 괴전동 401-2,35.869549,128.735308
106,안동국제탈춤축제,안동탈춤공원+시내일원+하회마을 외,2022-09-30,2022-10-09,탈춤공연+경연대회+대동난장 등,경상북도 안동시청,054-840-3400,경상북도 안동시 경동로 684(운흥동) 등 원도심 일대,36.5627376,128.732934
855,안동국제탈춤축제,안동탈춤공원+시내일원+하회마을 외,2023-10-02,2023-10-09,탈춤공연+경연대회+대동난장 등,경상북도 안동시청,054-840-3400,경상북도 안동시 경동로 684(운흥동) 등 원도심 일대,36.5627376,128.732934
372,거제비어페스타,장승포 수변공원,2022-08-17,2022-08-20,음악공연+즉석 댄스 등 경연+이벤트 및 각종 퍼포먼스,거제맥주축제추진위원회,055-639-3373,경상남도 거제시 장승포동 685-3,34.86687999,128.7260471
1021,거제송년불꽃축제,장승포항 수변공원,2022-12-31,2022-12-31,식전공연+개회식+불꽃쇼+식후공연 등의 행사가 진행되는 송년불꽃축제,거제시 장승포동,055-639-3396,경상남도 거제시 장승포동 685-3,34.86687999,128.7260471
1199,2023청도소싸움축제,청도소싸움경기장,2023-04-14,2023-04-16,전통소싸움대회 및 공연행사,청도소싸움축제추진위원회,054-370-6376,경상북도 청도군 화양읍 남성현로 348,35.6867346,128.7251449
1020,거제대구수산물축제,장목면 외포항 일원,2022-12-17,2022-12-18,축하공연+불꽃쇼+트로트공연과 함께 즐기는 거제대구수산물 축제,거제대구호망협의회+외포청년회,055-639-4273,경상남도 거제시 장목면 외포리 57-46,34.94091241,128.7192123
854,202청도세계코미디아트페스티벌,청도야외공연장,2023-10-13,2023-10-15,코미디를 테마로 한 공연+전시+체험 등,경상북도 청도군청,054-370-6376,경상북도 청도군 화양읍 청려로 1846,35.64838523,128.7186823
1201,2023청도반시축제,청도야외공연장,2023-10-13,2023-10-15,청도반시전시판매행사 및 공연,청도반시축제추진위원회,054-370-6376,경상북도 청도군 화양읍 청려로 1846,35.64838523,128.7186823
504,거제 옥포대첩 축제,옥포대첩기념공원+옥포동 일원,2022-06-14,2022-06-15,옥포대첩축제로 명칭 변경+임진왜란 첫 승전인 옥포대첩을 기념하는 행사로 기념식을 비롯하여 문화예술/ 민속/ 이벤트행사 등이 다양하게 진행되며 시민 참여마당 및 볼거리 제공,거제시문화예술재단,055-639-3393,경상남도 거제시 팔랑포2길 87,34.90219827,128.7140595
893,정월대보름 달집태우기 행사,안심교 하부 금호강 둔치,2023-02-05,2023-02-05,공연+달집태우기,안심백인청년회,053-662-2172,대구광역시 동구 금호강변로,35.863611,128.713736
47,거제도국제펭귄수영축제,덕포해수욕장,2022-12-10,2022-12-10,국제펭귄수영대회+아이스버킷+각종 공연+나눔 및 다양한 행사가 있는 겨울 축제,거제시 옥포2동,055-639-6864,경상남도 거제시 덕포동 364-4,34.91173654,128.7108483
590,제22회 밀양공연예술축제,밀양아리랑아트센터 밀양아리나,2022-07-08,2022-07-29,연극축제,경상남도 밀양시청,,경상남도 밀양시 부북면 창밀로 3097-16,35.53347627,128.7046157
591,제40회 대한민국연극제,밀양아리랑아트센터 밀양아리나,2022-07-08,2022-07-30,연극축제,경상남도 밀양시청,,경상남도 밀양시 부북면 창밀로 3097-16,35.53347627,128.7046157
649,대관령눈꽃축제,대관령면 횡계리 송천일원,2023-01-13,2023-01-22,눈조각전시+눈썰매체험,강원도 평창군청,033-335-3995,강원도 평창군 대관령면 사부랑길224-2,37.70493356,128.7017723
734,제6회의성슈퍼푸드마늘축제,의성종합운동장+읍내 시가지 일원 및 남대천,2023-10-06,2023-10-08,의성 특산물 마늘을 활용한 요리대회+마늘주제관 등 다채로운 프로그램 운영,의성군축제추진위원회,054-830-6578,경상북도 의성군 의성읍 군청길 31,36.35290408,128.6972464
895,팔공산 벚꽃축제,팔공산 동화지구 분수대광장,2023-04-06,2023-04-09,무대공연+봄나물 비빔밥 축제+벚꽃가요제,팔공산 동화지구 상가번영회,053-981-6624,대구광역시 동구 용수동 27-5,35.98972752,128.696466
1357,천을산 해맞이,천을산 정상,2024-01-01,2024-01-01,"신년메세지, 해오름 퍼포먼스 등",대구광역시 수성구,053-666-2162,대구광역시 수성구 가천동 산11-3,35.85169239,128.6950183
306,구민화합 어울림한마당,율하체육공원,2023-10-15,2023-10-15,무대공연+체육행사,대구광역시 동구청,053-662-4073,대구광역시 동구 금호강변로 278,35.85992537,128.6928379
371,거제 바다로 세계로,지세포항수변공원 등,2022-07-29,2022-07-31,스포츠와 함께하는 여름축제로 매년 7월말에서 8월초순 경에 개최되는 한려수도 해양축제로 천혜의 관광자원과 문화예술공연을 함께 즐길 수 있는 전국 최대규모의 해양축제,거제시 관광과,055-639-4163,경상남도 거제시 일운면 거제대로 2056,34.80795032,128.6922045
735,제1회남대천벚꽃축제,남대천일원,2023-04-08,2023-04-09,버스킹+플리마켓 중심의 벚꽃축제,경상북도 의성군청,054-830-6578,경상북도 의성군 의성읍 후죽리 774-18,36.34921729,128.6915824
1045,진해군항제,중원로터리 및 진해구 일원,2019-04-01,2019-04-10,추모대제+승전행사+불꽃쇼+문화예술행사,경상남도 창원시,,경상남도 창원시 진해구 진해대로 649,35.15910822,128.6869245
102,영주사과축제,영주시 부석사 주차장 일원,2021-10-25,2021-10-31,사과판매행사+이벤트+체험행사 등 영주사과홍보,경상북도 영주시,054-630-8707,경상북도 영주시 부석면 북지리 300,36.99451393,128.6811773
717,야철제,성산패총,2022-06-30,2022-06-30,초혼제+불씨봉송 및 점화+제례,경상남도 창원시,,경상남도 창원시 성산구 성산패총로 137,35.20793223,128.6792735
765,선덕여왕 숭모재,부인사 숭모전,2023-05-04,2023-05-04,숭모재 의식 및 국악공연+전시 등 문화행사,대한불교조계종 부인사,,대구광역시 동구 팔공산로 967-28,35.99490611,128.6739767
176,정선아리랑제,강원도 정선군 정선읍 아라리공원,2022-09-15,2022-09-18,강원도 무형문화재 제1호인 정선아리랑의 전승보존 및 계승,강원도 정선군,033-563-2646,강원도 정선군 정선읍 봉양3길 17,37.38024298,128.6602287
1016,정선아리랑제,강원도 정선군 정선읍 아라리공원,2023-09-14,2023-09-17,강원도 무형문화재 제1호인 정선아리랑의 전승보존 및 계승,강원도 정선군청,033-563-2646,강원도 정선군 정선읍 봉양3길 17,37.38024298,128.6602287
973,진해군악의장페스티벌,진해공설운동장,2019-04-01,2019-04-10,개막행사+주공연장 마칭공연+프린지공연,경상남도 창원시,,경상남도 창원시 진해구 충무로 43(도만동),35.14836103,128.6554537
503,거제맹종대나무축제,거제맹종죽테마파크,2022-04-28,2022-05-01,봄의 기운이 더욱 푸르러지는 4월에 하청면의 명소 거제맹종죽 테마파크 죽림포레스티벌로의 초대,거제맹종죽영농조합법인,055-639-6353,경상남도 거제시 하청면 실전리 산 84-6,34.96780022,128.6510265
304,최계란 선생 대구아리랑제,불로봉무동 일원,2023-10-01,2023-10-01,공연+먹거리 부스 운영,불로봉무동 주민자치위원회,053-662-2172,대구광역시 동구 팔공로50길 66,35.92195919,128.6501799
305,용암산성 옥샘문화재,불로천 다목적광장,2023-10-10,2023-10-10,옥천제+사생대회+끼페스티벌+문화행사,도평동주민자치위원회,053-662-3801,대구광역시 동구 팔공로24길 171,35.9099747,128.6501287
892,해맞이행사,동촌유원지 해맞이 공원,2023-01-01,2023-01-01,신년메시지+무대공연,대구광역시 동구청,053-662-2172,대구광역시 동구 효목동 212-2,35.884546,128.6456995
767,팔공산 왕건축제,동화천 생태하천 둔치,2023-09-16,2023-09-16,왕건관련 체험프로그램+동화천 걷기대회행사+무대행사,공산동 주민자치위원회,053-662-3981,대구광역시 동구 지묘동 1220-19,35.942676,128.6426741
860,용암산성 옥샘문화제,불로천,2021-10-01,2021-10-31,제례행사+공산농요 등,용암산성 옥샘문화제 추진위원회,053-662-3082,대구광역시 동구 아양로 207(신암동),35.88681058,128.6360751
861,팔공산 단풍축제,팔공산 동화지구,2021-10-01,2021-10-31,단풍가요제+단풍길 걷기대회+축하공연,팔공산 동화지구 상가번영회,053-982-0103,대구광역시 동구 아양로 207(신암동),35.88681058,128.6360751
894,2023 동촌금호강예술제 Art Blossom,"아양아트센터, 지저동 금호강 둔치",2023-03-28,2023-04-02,버스킹공연+노래하는 대한민국,대구광역시 동구청,053-662-4073,대구광역시 동구 불로동 1058,35.89472234,128.6332203
163,수성못페스티벌,수성못,2022-09-23,2022-09-25,지역 예술인 문화공연+음악불꽃쇼+들안길 푸드 페스티벌 등,대구광역시 수성구 문화체육과,053-668-1504,대구광역시 수성구 달구벌대로 2450(범어동),35.85820008,128.6306298
748,수성못페스티벌,수성못,2021-10-01,2021-10-03,지역 예술인 문화공연+음악불꽃쇼+들안길 푸드 페스티벌 등,대구광역시 수성구 문화체육과,053-668-1504,대구광역시 수성구 달구벌대로 2450(범어동),35.85820008,128.6306298
1111,양양 송이&연어축제,양양남대천 둔치 및 부대행사장,2023-10-04,2023-10-08,"송이 및 연어 홍보부스, 부대행사",양양문화재단,033-671-3803,강원도 양양군 양양읍 남문리 226-2,38.07312233,128.6241919
1150,양양문화제,양양남대천 둔치 및 부대행사장,2023-06-08,2023-06-10,2023년 양양문화제,양양문화제위원회,033-670-2795,강원도 양양군 양양읍 남문리 226-2,38.07312233,128.6241919
104,영주무섬외나무다리축제,영주시 무섬마을 일원,2022-10-01,2022-10-02,이벤트+체험행사 등 무섬마을 홍보,경상북도 영주시,054-630-8707,경상북도 영주시 문수면 수도리 268,36.732962,128.621224
719,남산상봉제,남산공원,2022-09-17,2022-09-18,개막식+상봉가요제+남산어울림한마당+체험행사,창원남산상봉제 축제위원회,,경상남도 창원시 의창구 팔용로 494-37,35.25767299,128.6191963
1356,상화문학제,수성못 상화동산+수성문화원,2023-05-19,2023-05-21,백일장+시낭송대회+문학강연+문학공연,수성문화원,053-768-0002,대구광역시 수성구 들안로16길 78,35.839227,128.618141
421,김광석노래부르기,신천둔치(대봉교아래),2018-09-15,2018-09-15,노래경연+ 초청가수콘서트+ 부대행사,대구광역시 중구,053-661-2177,대구광역시 수성구 수성로72길 43 (수성동2가),35.8561652,128.6162623
422,김광석노래부르기,신천둔치(대봉교아래),2019-09-21,2019-09-21,김광석노래경연+ 초청가수콘서트+ 부대행사,대구광역시 중구,053-661-2177,대구광역시 수성구 수성로72길 43 (수성동2가),35.8561652,128.6162623
505,남부면 수국축제,남부면 저구항 일원,2022-07-09,2022-07-10,남부면에서 20여년 동안 가꾸어 온 아름다운 수국꽃을 시민 및 관광객들에게 선물을 선사하다,거제시 남부면,055-639-6531,경상남도 거제시 남부면 남부해안로 30,34.73224984,128.6101227
58,김광석추모콘서트,김광석길야외콘서트홀,2019-01-06,2019-01-06,초청가수콘서트,대봉문화마을협의회,053-661-2173,대구광역시 중구 동덕로8길 34-20(대봉동),35.85982116,128.6066276
64,김광석길페스티벌,김광석길 일원(김광석길야외콘서트홀),2021-10-09,2021-10-10,대구레코드 페어+ 김광석 노래 편곡 오케스트라 공연+ 버스킹+ 유튜브 라이브중계,방천문화예술협회,053-661-2177,대구광역시 중구 동덕로8길 34-20(대봉동),35.85982116,128.6066276
423,제8회 김광석노래부르기,김광석길야외콘서트홀,2020-10-31,2020-10-31,전국 규모 김광석 노래경연 대회 개최+ 유튜브 라이브 중계,대구광역시 중구,053-661-2177,대구광역시 중구 동덕로8길 34-20(대봉동),35.85982116,128.6066276
424,제9회 김광석노래부르기,청라국민체육센터,2021-10-02,2021-10-02,전국 규모 김광석 노래경연 대회 개최,대구광역시 중구,053-661-2177,대구광역시 중구 동덕로8길 34-20(대봉동),35.85982116,128.6066276
425,김광석길페스티벌,김광석길 일원(김광석길야외콘서트홀),2020-11-07,2020-11-08,대구레코드 페어+ 김광석 노래 편곡 오케스트라 공연+ 버스킹+ 유튜브 라이브중계,방천문화예술협회,053-661-2177,대구광역시 중구 동덕로8길 34-20(대봉동),35.85982116,128.6066276
32,정월대보름달맞이축제,신천변 생활체육광장,2015-03-05,2015-03-05,달집태우기+ 민속놀이+ 먹거리 등,대구광역시 중구,053-661-2631,대구광역시 중구 국채보상로139길 1,35.86932566,128.6061577
60,정월대보름달맞이축제,신천변 생활체육광장,2011-02-17,2011-02-17,달집태우기+ 민속놀이+ 먹거리 등,대구광역시 중구,053-661-2631,대구광역시 중구 국채보상로139길 1,35.86932566,128.6061577
61,정월대보름달맞이축제,신천변 생활체육광장,2012-02-06,2012-02-06,달집태우기+ 민속놀이+ 먹거리 등,대구광역시 중구,053-661-2631,대구광역시 중구 국채보상로139길 1,35.86932566,128.6061577
62,정월대보름달맞이축제,신천변 생활체육광장,2013-02-22,2013-02-22,달집태우기+ 민속놀이+ 먹거리 등,대구광역시 중구,053-661-2631,대구광역시 중구 국채보상로139길 1,35.86932566,128.6061577
63,정월대보름달맞이축제,신천변 생활체육광장,2014-02-14,2014-02-14,달집태우기+ 민속놀이+ 먹거리 등,대구광역시 중구,053-661-2631,대구광역시 중구 국채보상로139길 1,35.86932566,128.6061577
857,대구화교중화문화축제,화교거리,2021-10-01,2021-10-31,중국용춤·사자춤+중화전통의상+음식+놀이 등,대구화교협회,053-255-0561,대구광역시 중구 국채보상로139길 1(동인동2가),35.86932522,128.6061572
858,봉산미술제,봉산문화거리,2021-10-05,2021-10-10,도슨트 아트투어+온라인 VR전시+온라인 미술작품 경매 등,봉산문화협회,053-425-6845,대구광역시 중구 국채보상로139길 1(동인동2가),35.86932522,128.6061572
859,종로맛길축제,종로,2021-10-01,2021-10-31,개폐막 공연+무대행사+기타행사 등(미정),종로맛집골목상인회 협동조합,053-661-2645,대구광역시 중구 국채보상로139길 1(동인동2가),35.86932522,128.6061572
885,김광석길 페스티벌,김광석길,2021-10-09,2021-10-10,김광석길 문화예술 공연+버스킹+전시 등,방천문화예술협회,053-661-2174,대구광역시 중구 국채보상로139길 1(동인동2가),35.86932522,128.6061572
886,서문시장글로벌대축제,서문시장,2021-10-01,2021-10-31,보부상퍼레이드+상인가요제+서문가요제,대구광역시 중구 일자리경제과,053-256-6341,대구광역시 중구 국채보상로139길 1(동인동2가),35.86932522,128.6061572
887,교동시장한마음축제,교동시장,2021-10-01,2021-10-31,교동시장보물찾기+추억의 낭만 DJ +사진전 등,대구광역시 중구 일자리경제과,053-427-0443,대구광역시 중구 국채보상로139길 1(동인동2가),35.86932522,128.6061572
888,빨간구두이야기,향촌동 수제화골목,2021-10-30,2021-10-31,수제화 전시 및 체험행사+가요제+플리마켓,대구광역시 중구 일자리경제과,053-253-9245,대구광역시 중구 국채보상로139길 1(동인동2가),35.86932522,128.6061572
968,대구스트리트모터페스티벌,남산동 자동차골목,2021-09-01,2021-12-31,차량 전시+축하공연+부대행사 등,남산동자동차골목상점가상인회,053-661-3014,대구광역시 중구 국채보상로139길 1(동인동2가),35.86932522,128.6061572
969,대구문화재야행,대구근대골목,2021-10-15,2021-10-16,근대 관련 문화공연+전시+체험+청사초롱 야경투어 및 테마투어 등,대구광역시 중구 관광진흥과,053-661-2195,대구광역시 중구 국채보상로139길 1(동인동2가),35.86932522,128.6061572
970,김광석 나의노래 다시부르기,"김광석길, 신천둔치",2021-10-02,2021-10-02,김광석 노래경연+김광석 추모사진 전시 등,대구광역시 중구 문화교육과,053-661-2174,대구광역시 중구 국채보상로139길 1(동인동2가),35.86932522,128.6061572
1071,대봉웨딩거리축제,대봉웨딩거리,2021-10-21,2021-10-22,웨딩 관련 상품체험+길거리 공연 등,대봉동 웨딩거리 상점가 상인회,053-661-2645,대구광역시 중구 국채보상로139길 1(동인동2가),35.86932522,128.6061572
1072,동성로축제,동성로,2021-10-15,2021-10-17,동성로 가요제+댄스+먹방대회+패션쇼 등,사단법인달성문화선양회,053-423-3337,대구광역시 중구 국채보상로139길 1(동인동2가),35.86932522,128.6061572
1073,대구패션주얼리위크,교동,2021-11-05,2021-11-06,주얼리패션쇼+주얼리 경매+주얼리 모델대회 등,대구패션주얼리특구상인회,053-424-9150,대구광역시 중구 국채보상로139길 1(동인동2가),35.86932522,128.6061572
57,방천골목오페라축제,방천골목,2018-06-14,2018-06-16,야외실경오페라+ 아마추어칸초네경연대회+ 갈라콘서트,방천골목오페라추진위원회,053-661-2174,대구광역시 중구 동덕로8길 26-11 (대봉동),35.85959529,128.606024
849,금호강 정월대보름축제,산격대교 하단,2023-02-05,2023-02-05,달집태우기+달맞이 행사 등,공모사업,053-665-2172,대구광역시 북구 산격동 1477-1,35.90943011,128.6039524
850,금호강 바람소리길축제,산격대교 하단,2023-09-01,2023-10-31,수상프로그램+체험+공연 등,행복북구문화재단,053-665-2172,대구광역시 북구 산격동 1477-1,35.90943011,128.6039524
976,김삿갓문화제,김삿갓유적지 일원,2022-09-23,2022-09-25,조선시대영월과거대전+백일장+김삿갓해학의길걷기,강원도 영월군,033-375-6353,강원도 영월군 김삿갓면 김삿갓로 216-22,37.07949201,128.6017366
261,대구치맥페스티벌,두류공원,2022-07-06,2022-07-10,치맥 테마 식음+체험+공연+참여프로그램 운영 등,사단법인한국치맥산업협회,053-248-9998,대구광역시 중구 공평로 88(동인동1가),35.87155388,128.6012201
1069,팔공산 산중장터 승시,동화사,2021-10-01,2021-10-31,산중장터 승시 재현+승시음악회+불교용품 전시+체험관 운영 등,팔공총림동화사,053-980-7956,대구광역시 중구 공평로 88(동인동1가),35.87155388,128.6012201
1070,대구생활문화제,동성로,2021-11-19,2021-11-21,예술동호회 공연 및 전시+체험존 운영,대구광역시 문화예술정책과,053-803-3631,대구광역시 중구 공평로 88(동인동1가),35.87155388,128.6012201
1083,대구글로벌게임문화축제 e-fun,동성로,2021-11-27,2021-11-28,게임영상콘서트+e스포츠대회+코스프레대회+게임체험존 운영,대구광역시 문화콘텐츠과,053-803-3801,대구광역시 중구 공평로 88(동인동1가),35.87155388,128.6012201
1084,생명사랑환경축제-맹꽁이야 놀자,달성습지,2021-09-11,2021-09-12,생태교육 및 참여 프로그램 운영+달성습지 홍보 등,대구광역시 환경정책과,053-803-4215,대구광역시 중구 공평로 88(동인동1가),35.87155388,128.6012201
1085,대구국제재즈축제,공원,2021-10-06,2021-10-11,재즈뮤지션 초청공연+프린지 공연+대구국제실용음악콩쿠르 개최,대구광역시 문화예술정책과,053-1544-1850,대구광역시 중구 공평로 88(동인동1가),35.87155388,128.6012201
1117,대구치맥페스티벌,두류공원,2021-10-01,2021-11-30,치맥 테마 식음+체험+공연+참여프로그램 운영 등,사단법인한국치맥산업협회,053-248-9998,대구광역시 중구 공평로 88(동인동1가),35.87155388,128.6012201
1118,디지털패션문화페스티벌,공원,2021-12-06,2021-12-12,디지털 패션쇼+패션아트 전시 및 공연+이커머스 라이브 마켓 등,대구광역시 섬유패션과,053-721-7434,대구광역시 중구 공평로 88(동인동1가),35.87155388,128.6012201
1119,대구포크페스티벌,공원,2021-11-20,2021-11-20,포크송 및 버스킹 공연+언택트 공연 100인 랜선 합창 등,대구광역시 문화예술정책과,053-626-2015,대구광역시 중구 공평로 88(동인동1가),35.87155388,128.6012201
1120,대구국제오페라축제,공연장,2021-09-09,2021-11-07,초청 오페라 공연+국제오페라오디션 등,대구광역시 문화콘텐츠과,053-803-3792,대구광역시 중구 공평로 88(동인동1가),35.87155388,128.6012201
1135,대구약령시한방문화축제,약령시장,2021-10-06,2021-10-10,고유제+개막식+체험프로그램 등,대구광역시 의료산업기반과+대구광역시 중구 관광진흥과,053-253-4729,대구광역시 중구 공평로 88(동인동1가),35.87155388,128.6012201
1136,대구컬러풀페스티벌,국채보상로,2021-10-22,2021-10-24,퍼레이드+축하공연+부대행사 등,대구광역시 문화콘텐츠과,053-430-1261,대구광역시 중구 공평로 88(동인동1가),35.87155388,128.6012201
1137,대구국제뮤지컬페스티벌,공연장,2021-06-18,2021-07-05,국내외 우수작품 공연+딤프어워즈+딤프린지 등,대구광역시 문화콘텐츠과,053-622-1945,대구광역시 중구 공평로 88(동인동1가),35.87155388,128.6012201
633,2023 대구앞산축제(제28회 대덕제),남구구민체육광장,2023-05-05,2023-05-06,앞산을 배경으로 다양한 체험프로그램과 문화예술 공연이 있는 주민화합 축제,대구광역시 남구,053-664-3262,대구광역시 남구 고산4길 71,35.83229037,128.6004362
863,대덕제 대구앞산축제,앞산,2021-09-01,2021-12-31,앞산트레일(팸)투어+앞산콘서트+앞산이야기극 등(일정 미정),남구문화행사추진위원회,053-664-3262,대구광역시 남구 이천로 51(봉덕동),35.84594995,128.5975989
864,신천 음악버스킹,신천둔치,2021-09-01,2021-12-31,신천달빛버스킹+THE LIVE+아이스 이벤트+쿨존 등,남구문화행사추진위원회,053-664-3262,대구광역시 남구 이천로 51(봉덕동),35.84594995,128.5975989
865,대구할로윈축제,앞산 맛길,2021-10-01,2021-10-31,할로윈 퍼레이드+할로윈 코스튬콘테스트 등,대구광역시 남구 문화관광과,053-664-2174,대구광역시 남구 이천로 51(봉덕동),35.84594995,128.5975989
59,대구패션주얼리위크,대구 주얼리 특구,2020-10-30,2020-10-31,비대면 온라인 축제 개최+  주얼리패션쇼+ 주얼리경매+ 주얼리모델선발대회+ 주얼리체험 등,대구패션주얼리특구상인회,053-661-2046,대구광역시 중구 경상감영길 176,35.87177744,128.5966863
33,정월대보름달맞이축제,신천변 생활체육광장,2016-02-22,2016-02-22,달집태우기+ 민속놀이+ 먹거리 등,대구광역시 중구,053-661-2631,대구광역시 중구 봉산문화길 77,35.86339725,128.5965647
73,봉산미술제,봉산문화거리,2013-10-15,2013-10-21,화랑기획전 및 부대행사,봉산문화협회,053-661-2177,대구광역시 중구 봉산문화길 77,35.86339725,128.5965647
192,봉산미술제,봉산문화거리,2014-10-14,2014-10-20,화랑기획전 및 부대행사,봉산문화협회,053-661-2177,대구광역시 중구 봉산문화길 77,35.86339725,128.5965647
212,봉산미술제,봉산문화거리,2015-10-20,2015-10-26,화랑기획전 및 부대행사,봉산문화협회,053-661-2177,대구광역시 중구 봉산문화길 77,35.86339725,128.5965647
226,중구미술협회전,봉산문화회관 전시실,2011-10-04,2011-10-09,중구미술협회작가 전시,중구미술협회,053-661-2177,대구광역시 중구 봉산문화길 77,35.86339725,128.5965647
227,중구미술협회전,봉산문화회관 전시실,2012-12-21,2012-12-28,중구미술협회작가 전시,중구미술협회,053-661-2177,대구광역시 중구 봉산문화길 77,35.86339725,128.5965647
228,중구미술협회전,봉산문화회관 전시실,2013-10-15,2013-10-21,중구미술협회작가 전시,중구미술협회,053-661-2177,대구광역시 중구 봉산문화길 77,35.86339725,128.5965647
229,중구미술협회전,봉산문화회관 전시실,2014-11-11,2014-11-16,중구미술협회작가 전시,중구미술협회,053-661-2177,대구광역시 중구 봉산문화길 77,35.86339725,128.5965647
230,중구미술협회전,봉산문화회관 전시실,2020-10-06,2020-10-11,중구미술협회작가 전시,중구미술협회,053-661-2177,대구광역시 중구 봉산문화길 77,35.86339725,128.5965647
231,중구미술협회전,봉산문화회관 전시실,2021-10-05,2021-10-10,중구미술협회작가 전시,중구미술협회,053-661-2177,대구광역시 중구 봉산문화길 77,35.86339725,128.5965647
232,봉산미술제,봉산문화거리,2011-10-06,2011-10-12,화랑기획전 및 부대행사,봉산문화협회,053-661-2177,대구광역시 중구 봉산문화길 77,35.86339725,128.5965647
233,봉산미술제,봉산문화거리,2012-10-12,2012-10-18,화랑기획전 및 부대행사,봉산문화협회,053-661-2177,대구광역시 중구 봉산문화길 77,35.86339725,128.5965647
419,제28회 봉산미술제,봉산문화거리,2020-10-09,2020-10-11,도슨트아트투어(봉산문화거리 화랑 투어)+ 온라인 VR전시+ 온라인 미술작품경매+ 코로나19 주제의 어린이 작품 온라인 전시 등,봉산문화협회,053-661-2177,대구광역시 중구 봉산문화길 77,35.86339725,128.5965647
420,제29회 봉산미술제,봉산문화거리,2021-10-05,2021-10-10,도슨트아트투어(봉산문화거리 화랑 투어)+ 온라인 VR전시+ 온라인 미술작품경매+ 코로나19 주제의 어린이 작품 온라인 전시 등,봉산문화협회,053-661-2177,대구광역시 중구 봉산문화길 77,35.86339725,128.5965647
727,봉산미술제,봉산문화거리,2019-10-04,2019-10-06,화랑기획전 및 부대행사,봉산문화협회,053-661-2177,대구광역시 중구 봉산문화길 77,35.86339725,128.5965647
753,봉산미술제,봉산문화거리,2016-10-20,2016-10-26,화랑기획전 및 부대행사,봉산문화협회,053-661-2177,대구광역시 중구 봉산문화길 77,35.86339725,128.5965647
754,봉산미술제,봉산문화거리,2017-10-18,2017-10-24,화랑기획전 및 부대행사,봉산문화협회,053-661-2177,대구광역시 중구 봉산문화길 77,35.86339725,128.5965647
755,봉산미술제,봉산문화거리,2018-10-10,2018-10-16,화랑기획전 및 부대행사,봉산문화협회,053-661-2177,대구광역시 중구 봉산문화길 77,35.86339725,128.5965647
1051,봉산도예전,봉산문화거리,2011-04-07,2011-04-13,도예전시 및 부대행사,봉산문화협회,053-661-2177,대구광역시 중구 봉산문화길 77,35.86339725,128.5965647
1052,봉산도예전,봉산문화거리,2012-04-06,2012-04-12,도예전시 및 부대행사,봉산문화협회,053-661-2177,대구광역시 중구 봉산문화길 77,35.86339725,128.5965647
1053,봉산도예전,봉산문화거리,2013-04-09,2014-04-17,도예전시 및 부대행사,봉산문화협회,053-661-2177,대구광역시 중구 봉산문화길 77,35.86339725,128.5965647
1054,봉산도예전,봉산문화거리,2014-04-11,2014-04-17,도예전시 및 부대행사,봉산문화협회,053-661-2177,대구광역시 중구 봉산문화길 77,35.86339725,128.5965647
1055,봉산도예전,봉산문화거리,2015-05-01,2015-05-05,도예전시 및 부대행사,봉산문화협회,053-661-2177,대구광역시 중구 봉산문화길 77,35.86339725,128.5965647
1056,봉산도예전,봉산문화거리,2016-05-10,2016-05-16,도예전시 및 부대행사,봉산문화협회,053-661-2177,대구광역시 중구 봉산문화길 77,35.86339725,128.5965647
1057,봉산조형페스티벌 도예조각전,봉산문화거리,2017-04-25,2017-05-01,도예전시 및 부대행사,봉산문화협회,053-661-2177,대구광역시 중구 봉산문화길 77,35.86339725,128.5965647
1058,봉산도자기축제,봉산문화거리,2018-04-10,2018-04-16,도예전시 및 부대행사(공방체험+ 도슨트프로그램+ 도예장터+ 경매 등),봉산문화협회,053-661-2177,대구광역시 중구 봉산문화길 77,35.86339725,128.5965647
1059,봉산도자기축제,봉산문화거리,2019-04-19,2019-04-21,도예전시 및 부대행사(공방체험+ 도슨트프로그램+ 도예장터+ 경매 등),봉산문화협회,053-661-2177,대구광역시 중구 봉산문화길 77,35.86339725,128.5965647
1060,봉산조형페스티벌,봉산문화거리,2020-10-09,2020-10-11,도예전시 및 부대행사,봉산문화협회,053-661-2177,대구광역시 중구 봉산문화길 77,35.86339725,128.5965647
1061,봉산조형페스티벌,봉산문화거리,2021-06-04,2021-06-06,도예전시 및 부대행사,봉산문화협회,053-661-2177,대구광역시 중구 봉산문화길 77,35.86339725,128.5965647
568,동성로축제,동성로 야외무대,2016-05-13,2016-05-15,개막식+ 동성로가요제+ 커버댄스+ DJ페스티벌,사)달성문화선양회,053-661-2177,대구광역시 중구 동성로28,35.8692058,128.5954708
569,동성로축제,동성로 야외무대,2017-05-12,2017-05-14,개막식+ 동성로가요제+ 커버댄스+ DJ페스티벌,사)달성문화선양회,053-661-2177,대구광역시 중구 동성로28,35.8692058,128.5954708
570,동성로축제,동성로 야외무대,2018-05-11,2018-05-13,개막식+ 동성로가요제+ 커버댄스+ DJ페스티벌,사)달성문화선양회,053-661-2177,대구광역시 중구 동성로28,35.8692058,128.5954708
571,동성로축제,동성로 야외무대,2019-05-10,2019-05-12,개막식+ 동성로가요제+ 커버댄스+ DJ페스티벌,사)달성문화선양회,053-661-2177,대구광역시 중구 동성로28,35.8692058,128.5954708
572,제31회 동성로축제,동성로 야외무대,2020-10-23,2020-10-25,비대면 온라인 축제 개최+  동성로가요제+댄스대회+먹방대회+패션쇼외 SNS이벤트(부르GO+ 춤추GO+ 먹GO+입GO 4가지 대회로 구성)+ 축제기간 동성로 일원 4곳  LED전광판 축제영상 송출,사)달성문화선양회,053-661-2177,대구광역시 중구 동성로28,35.8692058,128.5954708
573,제32회 동성로축제,동성로 야외무대,2021-10-15,2021-10-17,비대면 온라인 축제 개최+ 메타버스 비대면 가요제+ 메타버스 비대면 패션쇼+ 동성로 매장 연계 라이브 커머스,사)달성문화선양회,053-661-2177,대구광역시 중구 동성로28,35.8692058,128.5954708
1062,동성로축제,동성로 야외무대,2011-05-20,2011-05-22,개막식+ 동성로가요제+ 커버댄스+ DJ페스티벌,사)달성문화선양회,053-661-2177,대구광역시 중구 동성로28,35.8692058,128.5954708
1063,동성로축제,동성로 야외무대,2012-05-18,2012-05-20,개막식+ 동성로가요제+ 커버댄스+ DJ페스티벌,사)달성문화선양회,053-661-2177,대구광역시 중구 동성로28,35.8692058,128.5954708
1064,동성로축제,동성로 야외무대,2013-05-17,2013-05-19,개막식+ 동성로가요제+ 커버댄스+ DJ페스티벌,사)달성문화선양회,053-661-2177,대구광역시 중구 동성로28,35.8692058,128.5954708
1065,동성로축제,동성로 야외무대,2014-10-03,2014-10-05,개막식+ 동성로가요제+ 커버댄스+ DJ페스티벌,사)달성문화선양회,053-661-2177,대구광역시 중구 동성로28,35.8692058,128.5954708
1066,동성로축제,동성로 야외무대,2015-05-01,2015-05-03,개막식+ 동성로가요제+ 커버댄스+ DJ페스티벌,사)달성문화선양회,053-661-2177,대구광역시 중구 동성로28,35.8692058,128.5954708
55,제1회 북성로 축제,북성로 공구골목 일원,2017-10-29,2017-10-29,부스프로그램+ 북성로 공업소 투어+ 오픈 스튜디오(작가 공방 오픈)+ 거리전시 및 공연,대구광역시 중구,053-661-2173,대구광역시 중구 북성로 104,35.87433558,128.5936894
56,제2회 북성로 축제,북성로 공구골목 일원,2018-10-20,2018-10-21,부스프로그램+ 북성로 공업소 투어+ 오픈 스튜디오(작가 공방 오픈)+ 거리전시 및 공연,대구광역시 중구,053-661-2173,대구광역시 중구 북성로 104,35.87433558,128.5936894
82,대구워터페스티벌,북성로 공구골목 일원,2017-07-30,2017-07-30,물총놀이+ 무대행사+ 푸드트럭+ 플리마켓+ 주민쉼터 등,문화마을협동조합,053-661-2174,대구광역시 중구 북성로 104,35.87433558,128.5936894
9,대구약령시 한방문화축제,약령시(약전골목) 일원,2022-10-06,2022-10-10,경연+ 참여+ 체험+ 전시+ 공연+ 먹거리 등,대구광역시청+대구광역시 중구청,053-661-2044,대구광역시 중구 남성로 61 (동성로3가),35.86728562,128.5933466
65,「제34회 대구약령시 한방문화축제」,약령시(약전골목) 일원,2011-05-03,2011-05-07,경연+ 참여+ 체험+ 전시+ 공연+ 먹거리 등,대구광역시+대구광역시 중구,053-661-2044,대구광역시 중구 남성로 61 (동성로3가),35.86728562,128.5933466
66,「제35회 대구약령시 한방문화축제」,약령시(약전골목) 일원,2012-05-02,2012-05-06,경연+ 참여+ 체험+ 전시+ 공연+ 먹거리 등,대구광역시+대구광역시 중구,053-661-2044,대구광역시 중구 남성로 61 (동성로3가),35.86728562,128.5933466
67,「제36회 대구약령시 한방문화축제」,약령시(약전골목) 일원,2013-05-08,2013-05-12,경연+ 참여+ 체험+ 전시+ 공연+ 먹거리 등,대구광역시+대구광역시 중구,053-661-2044,대구광역시 중구 남성로 61 (동성로3가),35.86728562,128.5933466
68,「제37회 대구약령시 한방문화축제」,약령시(약전골목) 일원,2014-10-01,2014-10-05,경연+ 참여+ 체험+ 전시+ 공연+ 먹거리 등,대구광역시+대구광역시 중구,053-661-2044,대구광역시 중구 남성로 61 (동성로3가),35.86728562,128.5933466
69,약령개장 357주년 2015「대구약령시 한방문화축제」,약령시(약전골목) 일원,2015-04-15,2015-04-19,경연+ 참여+ 체험+ 전시+ 공연+ 먹거리 등,대구광역시+대구광역시 중구,053-661-2044,대구광역시 중구 남성로 61 (동성로3가),35.86728562,128.5933466
70,2016 대구약령시한방문화축제,약령시(약전골목) 일원,2016-05-04,2016-05-08,경연+ 참여+ 체험+ 전시+ 공연+ 먹거리 등,대구광역시+대구광역시 중구,053-661-2044,대구광역시 중구 남성로 61 (동성로3가),35.86728562,128.5933466
71,2017 대구약령시한방문화축제,약령시(약전골목) 일원,2017-05-03,2017-05-07,경연+ 참여+ 체험+ 전시+ 공연+ 먹거리 등,대구광역시+대구광역시 중구,053-661-2044,대구광역시 중구 남성로 61 (동성로3가),35.86728562,128.5933466
74,2019 대구약령시한방문화축제,약령시(약전골목) 일원,2019-05-02,2019-05-06,경연+ 참여+ 체험+ 전시+ 공연+ 먹거리 등,대구광역시+대구광역시 중구,053-661-2178,대구광역시 중구 남성로 61 (동성로3가),35.86728562,128.5933466
225,대구화교중화문화축제,종로 화교소학교 및 화교거리,2019-10-19,2019-10-20,무대행사 및 거리행사+ 전시행사 등,대구화교협회,053-661-2177,대구광역시 중구 중앙대로79길 31 (종로2가),35.86904475,128.5920612
374,대구화교중화문화축제,종로 화교소학교 및 화교거리,2012-10-13,2012-10-13,무대행사 및 거리행사+ 전시행사 등,대구화교협회,053-661-2177,대구광역시 중구 중앙대로79길 31 (종로2가),35.86904475,128.5920612
375,대구화교중화문화축제,종로 화교소학교 및 화교거리,2013-10-18,2013-10-18,무대행사 및 거리행사+ 전시행사 등,대구화교협회,053-661-2177,대구광역시 중구 중앙대로79길 31 (종로2가),35.86904475,128.5920612
376,대구화교중화문화축제,종로 화교소학교 및 화교거리,2014-10-04,2014-10-05,무대행사 및 거리행사+ 전시행사 등,대구화교협회,053-661-2177,대구광역시 중구 중앙대로79길 31 (종로2가),35.86904475,128.5920612
377,대구화교중화문화축제,종로 화교소학교 및 화교거리,2015-10-17,2015-10-18,무대행사 및 거리행사+ 전시행사 등,대구화교협회,053-661-2177,대구광역시 중구 중앙대로79길 31 (종로2가),35.86904475,128.5920612
378,대구화교중화문화축제,종로 화교소학교 및 화교거리,2016-10-22,2016-10-23,무대행사 및 거리행사+ 전시행사 등,대구화교협회,053-661-2177,대구광역시 중구 중앙대로79길 31 (종로2가),35.86904475,128.5920612
379,대구화교중화문화축제,종로 화교소학교 및 화교거리,2017-10-14,2017-10-15,무대행사 및 거리행사+ 전시행사 등,대구화교협회,053-661-2177,대구광역시 중구 중앙대로79길 31 (종로2가),35.86904475,128.5920612
380,대구화교중화문화축제,종로 화교소학교 및 화교거리,2018-10-20,2018-10-21,무대행사 및 거리행사+ 전시행사 등,대구화교협회,053-661-2177,대구광역시 중구 중앙대로79길 31 (종로2가),35.86904475,128.5920612
574,대구화교중화문화축제,종로 화교소학교 및 화교거리,2011-08-30,2011-08-31,무대행사 및 거리행사+ 전시행사 등,대구화교협회,053-661-2177,대구광역시 중구 중앙대로79길 31 (종로2가),35.86904475,128.5920612
75,향촌동수제화골목 2014년「빨간구두 이야기」,향촌동수제화골목 일원,2014-11-15,2014-11-16,무대행사+ 체험행사+ 부대행사 등,대구광역시 수제화협회,053-661-2046,대구광역시 중구 서성로14길 78,35.8728473,128.591844
76,향촌동수제화골목 2015년「빨간구두 이야기」,향촌동수제화골목 일원,2015-05-02,2015-05-03,무대행사+ 체험행사+ 부대행사 등,대구광역시 수제화협회,053-661-2046,대구광역시 중구 서성로14길 78,35.8728473,128.591844
77,향촌동수제화골목 2016년「빨간구두 이야기」,향촌동수제화골목 일원,2016-05-14,2016-05-15,무대행사+ 체험행사+ 부대행사 등,대구광역시 수제화협회,053-661-2046,대구광역시 중구 서성로14길 78,35.8728473,128.591844
78,향촌동수제화골목 2017년「빨간구두 이야기」,향촌동수제화골목 일원,2017-10-28,2017-10-29,무대행사+ 체험행사+ 부대행사 등,대구광역시 수제화협회,053-661-2046,대구광역시 중구 서성로14길 78,35.8728473,128.591844
79,향촌동수제화골목 2018년「빨간구두 이야기」,향촌동수제화골목 일원,2018-10-13,2018-10-14,무대행사+ 체험행사+ 부대행사 등,대구광역시 수제화협회,053-661-2046,대구광역시 중구 서성로14길 78,35.8728473,128.591844
80,향촌동수제화골목 2019년「빨간구두 이야기」,향촌동수제화골목 일원,2019-10-19,2019-10-20,무대행사+ 체험행사+ 부대행사 등,대구광역시 수제화협회,053-661-2046,대구광역시 중구 서성로14길 78,35.8728473,128.591844
81,향촌동수제화골목 2020년「빨간구두 이야기」,향촌동수제화골목 일원,2020-10-31,2020-11-01,비대면 온라인 축제 개최+ 수제화패션쇼+ 행운권 추첨 등,대구광역시 수제화협회,053-661-2046,대구광역시 중구 서성로14길 78,35.8728473,128.591844
48,대구 근대路야행(1회),약령시일원,2018-08-24,2018-08-25,문화(재)시설 오픈하우스+ 전시+ 공연+ 체험+ 강좌+ 투어 등,대구광역시 중구,053-661-2195,대구광역시 중구 달구벌대로415길 49,35.86851636,128.5899085
50,대구 문화재 야행,"약령시, 청라언덕",2019-08-23,2019-08-24,문화(재)시설 오픈하우스+ 전시+ 공연+ 체험+ 강좌+ 투어 등,대구광역시 중구,053-661-2181,대구광역시 중구 달구벌대로415길 49,35.86851636,128.5899085
51,2020 대구 문화재 야행,"약령시, 청라언덕",2020-09-25,2020-09-26,청사초롱 야경 투어+ 전시행사 및 포토존 운영+ 공연 무관중 사전녹화 영상 등 송출,대구광역시 중구,053-661-2195,대구광역시 중구 달구벌대로415길 49,35.86851636,128.5899085
72,2018 대구약령시한방문화축제,약령시(약전골목) 일원,2018-05-03,2018-05-07,경연+ 참여+ 체험+ 전시+ 공연+ 먹거리 등,대구광역시+대구광역시 중구,053-661-2044,대구광역시 중구 달구벌대로415길 49,35.86851636,128.5899085
83,대구 근대路야행,근대골목 일원(청라언덕~계산성당~약령시한의약박물관),2017-08-25,2017-08-26,문화(재)시설 오픈하우스+ 전시+ 공연+ 체험+ 강좌+ 투어 등,대구광역시 중구,053-661-2195,대구광역시 중구 달구벌대로415길 49,35.86851636,128.5899085
836,제27회 부곡온천축제,부곡온천광광특구 일원,2022-05-06,2022-05-08,산신제+온정제+기념식+축하콘서트+힐링둘레길 걷기,(사)부곡온천광광협의회,,경상남도 창녕군 부곡면 거문리 203-1,35.43746252,128.588844
52,대구스트리트 모터 페스티벌,남산동 자동차골목,2017-10-21,2017-10-22,자동차전시+ 레이싱모델쇼+ 공연 등,남산동자동차골목상점가상인회,053-661-3014,대구광역시 중구 명덕로35길 14,35.85747199,128.5883239
53,대구스트리트 모터 페스티벌,남산동 자동차골목,2018-10-06,2018-10-07,자동차전시+ 레이싱모델쇼+ 공연 등,남산동자동차골목상점가상인회,053-661-3014,대구광역시 중구 명덕로35길 14,35.85747199,128.5883239
54,대구스트리트 모터 페스티벌,남산동 자동차골목,2019-05-18,2019-05-19,자동차전시+ 레이싱모델쇼+ 공연 등,남산동자동차골목상점가상인회,053-661-2180,대구광역시 중구 명덕로35길 14,35.85747199,128.5883239
673,오대산문화축전,오대산 월정사,2022-10-07,2022-10-09,산사음악회+전시+불교문화체험,강원도 평창군청,033-339-6800,강원도 평창군 진부면 오대산로 413-28,37.73404014,128.5875956
851,대구 북구 떡볶이 페스티벌,고성동 일대,2023-06-16,2023-06-18,떡볶이 페스티벌,대구광역시 북구청 문화예술과,053-665-2172,대구광역시 북구 고성동3가 2,35.88301935,128.5861543
49,대구 근대路야행(2회),청라언덕,2018-09-07,2018-09-08,문화(재)시설 오픈하우스+ 전시+ 공연+ 체험+ 강좌+ 투어 등,대구광역시 중구,053-661-2195,"대구광역시 중구 달구벌대로2035 (동산동, 동산아파트)",35.8670786,128.5860498
103,영주한국선비문화축제,영주시 선비촌 일원,2022-05-05,2022-05-08,소수서원 사액 봉안레 재현+한복맵시대회 등 한국정신문화의 뿌리 선비정신 알림,경상북도 영주시,054-630-8707,경상북도 영주시 순흥면 청구리 357,36.92847353,128.5834337
166,금호강바람소리길축제,금호강 둔치,2022-09-24,2022-09-25,마칭퍼레이드+금호강 생태전시+체험부스 등,대구광역시 북구 문화예술과,053-665-2172,대구광역시 북구 옥산로 65(침산동),35.8856843,128.5827802
747,논두렁밭두렁축제,경북농업기술원,2021-10-01,2021-10-31,허수아비 전시회+체험프로그램+버스킹 등,강북풀뿌리단체협의회,053-326-0645,대구광역시 북구 옥산로 65(침산동),35.8856843,128.5827802
866,금호강바람소리길축제,금호강 둔치,2021-10-02,2021-10-03,마칭퍼레이드+금호강 생태전시+체험부스 등,대구광역시 북구 문화예술과,053-665-2172,대구광역시 북구 옥산로 65(침산동),35.8856843,128.5827802
848,해맞이 행사,오봉산 등,2023-01-01,2023-01-01,"새해 소원빌기 행사+새해안녕기원행사,해맞이공연+먹거리제공 등",공모사업,053-665-2795,대구광역시 북구 침산동 1643-45,35.89094921,128.5827398
46,거제 섬꽃축제,거제시 농업개발원,2022-10-29,2022-11-06,꽃+문화+사람이 어우러지는 가을꽃 축제이다. 주행사로는 국화분재 전시+힐링허브랜드+가을꽃 조형물 전시+테마꽃동산+국화소품+실증시험온실+화목류시험포+난지과수원 등이 있다.,거제시농업기술센터 농업관광과,055-639-6443,경상남도 거제시 거제면 거제남서로 3577,34.85646488,128.5791279
804,달성토성마을축제,달성토성 둘레길,2021-04-24,2021-04-24,우리마을 소개+ 체험 전시마당+ 문화공연 등,달성토성마을골목축제 조직위원회,053-663-2181,대구광역시 서구 국채보상로 81길 43,35.8758308,128.5747396
810,마산국화축제,마산해양신도시 및 원도심 일원,2022-10-29,2022-11-09,국화작품전시+공연,경상남도 창원시,,경상남도 창원시 마산합포구 해안대로 180,35.19164153,128.5677047
862,달구벌목민관축제,서구 일대,2021-10-01,2021-10-31,달구벌목민관 부임행차 재현 퍼레이드+달구벌 목민관 추원제,대구광역시 서구 문화홍보과,053-663-2184,대구광역시 서구 국채보상로 257(평리동),35.87232184,128.5592911
807,달구벌목민관축제,서구 일대,2019-10-13,2019-10-13,달구벌목민관 부임 행차 퍼레이드 등,대구광역시 서구청,053-663-2181,대구광역시 서구 국채보상로 257,35.87232184,128.5592204
672,평창송어축제,진부면 오대천일원,2022-12-30,2023-01-29,송어얼음낚시+송어맨손잡기,강원도 평창군청,033-336-4000,강원도 평창군 진부면 경강로 3562,37.63321778,128.5570396
604,평창송어축제,진부면 오대천일원,2022-12-28,2023-02-02,송어얼음낚시+송어맨손잡기,강원도 평창군,033-336-4000,강원도 평창군 진부면 경강로 3562,37.6332195,128.5570386
806,미소&행복 구민축제,구민운동장,2019-10-13,2019-10-13,구민화합경기+ 구민가요제 등,대구광역시 서구문화원,053-663-2181,대구광역시 서구 당산로 403,35.87279161,128.545577
805,가족사랑 아이스축제,이현공원물놀이장,2019-07-27,2019-07-27,온가족 참여 체험 프로그램+ 플리마켓 및 체험부스 등,공모 선정,053-663-2181,대구광역시 서구 문화로 122,35.873636,128.5454766
749,장미꽃 필 무렵,이곡장미공원,2021-05-20,2021-05-22,축하콘서트+버스킹 공연+장미체험부스 운영,재단법인달서문화재단,053-584-9712,대구광역시 달서구 학산로 45(월성동),35.82991524,128.5328365
808,해맞이축제,와룡산 상리봉 정상,2019-01-01,2019-01-01,전통문화공연+ 성악공연+ 해맞이 퍼포먼스+ 떡국나눔,대구광역시 서구청,053-663-2181,대구광역시 서구 상리동 산 253-2,35.88605833,128.5229054
1306,희망달서 큰잔치,달서아트센터,2023-10-13,2023-10-15,희망가득체험부스 + 다문화 어울림제 + 축하 콘서트 등,(재)달서문화재단,053-584-9711,대구광역시 달서구 문화회관길 160(장기동),35.84342427,128.5228246
732,선사문화체험축제,한샘청동공원,2023-05-12,2023-05-13,선사테마축제 및 체험프로그램 운영 등,달서구문화원,053-667-2194,대구광역시 달서구 대천동 353-5,35.81951349,128.5187423
115,장미꽃 필(feel)무렵,이곡장미공원,2023-05-19,2023-05-21,움직이는 포토존 + 장미꽃 홍보단 + 장미 시화전 + 체험 프로그램 운영,(재)달서문화재단,053-584-9771,대구광역시 달서구 이곡동 1306-6,35.85779894,128.5147832
44,청마포도축제,둔덕면 둔덕시골 축제,2022-08-27,2022-08-28,둔덕골 거봉포도를 테마로 한 체험 프로그램+지역농산물 판매+문화행사 및 민속체험,청마포도축제추진위원회,055-639-6382,경상남도 거제시 둔덕면 청마로 159,34.85232978,128.510722
839,제5회 창녕양파가요제,창녕공설운동장 특설무대,2022-09-03,2022-09-03,경연팀 공연+초대가수공연,경상남도 창녕군청,,경상남도 창녕군 창녕읍 창녕대로 305,35.52088133,128.5049206
716,창원진동불꽃낙화축제,창원진동면 광암항,2021-12-11,2021-12-11,축하공연+개막식+불꽃낙화 점화,창원진동미더덕축제위원회+창원진동불꽃낙화축제위원회,,경상남도 창원시 마산합포구 진동면 광암해안길16-1,35.10418995,128.4971465
838,창녕 문화재 야행(가소로운 비사벌),"창녕천 일원(술정리동삼층석탑, 만옥정공원, 석빙고 공원)",2022-08-19,2022-08-21,창녕 문화재 야행 행사+야간조명+먹거리및프리마켓,경상남도 창녕군청,,경상남도 창녕군 창녕읍 교하리 263-1,35.53941008,128.4971008
840,제36회 우포따오기와 함께하는 비사벌문화제,창녕천 일원,2022-10-07,2022-10-09,비사벌문화행렬+향토기양제+보부상 장터+드론쇼,경상남도 창녕군청,,경상남도 창녕군 창녕읍 교하리 263-1,35.53941008,128.4971008
788,제24회 단양온달문화축제,영춘면 온달관광지 및 단양읍 일원,2022-09-30,2022-10-02,제24회 단양온달문화축제,단양문화원,043-420-2552,충청북도 단양군 영춘면 온달로 23,37.06295564,128.4929221
837,제11회 산토끼와 따오기가 함께하는 창작동요제,창녕문화예술회관 대공연장,2022-07-29,2022-07-30,동요노래부르기 대회+창작동요제,경상남도 창녕군청,,경상남도 창녕군 창녕읍 우포2로 1189-25,35.54473636,128.4902051
101,소백산철쭉제,영주시 소백산 일원,2022-05-28,2022-05-29,소백산 산신제+죽령옛길걷기+소백산 철쭉 등반대회 등 소백산 철쭉 홍조,경상북도 영주시,054-630-8707,경상북도 영주시 풍기읍 수철리 산 86-1,36.91240318,128.4706212
112,영월동강뗏목축제,동강둔치 일원,2022-07-28,2022-07-30,전통뗏목시연+맨손송어잡기+래프팅,강원도 영월군,033-375-6353,강원도 영월군 영월읍 하송리 61-11,37.17968547,128.4698463
110,단종문화제,장릉 및 영월읍 일원,2022-04-29,2022-05-01,조신시대국장재현+정순왕후선발대회+야간칡줄다리기,강원도 영월군,033-375-6353,강원도 영월군 영월읍 단종로 24,37.18609549,128.4681825
825,고성군민의 날 및 수성문화제,고성종합운동장외 부대시설,2021-09-22,2022-09-24,수성제례+군민의 날 행사,고성군수성문화제위원회,,강원도 고성군 간성읍 수성로 87,38.37632274,128.4650421
111,동강국제사진제,동강사진박물관,2022-07-22,2022-10-09,동강사진상+워크숍+사진예술전시,강원도 영월군,033-375-6353,강원도 영월군 영월읍 영월로 1909-10,37.18193994,128.4615511
750,달성 100대 피아노,사문진 나루터,2021-10-01,2021-10-31,100인 피아니스트 공연+유명 아티스트 초청 및 협연,대구광역시 달성군 문화체육과,053-668-2172,대구광역시 달성군 논공읍 달성군청로 33,35.77466287,128.4313916
251,통영한산대첩축제,통영 삼도수군통제영 및 통영시 일원,2022-08-06,2022-08-14,고유제+군점+이순신장군 행렬+한산대첩 재현+공중한산해전+김한민감독 초청강연,경상남도 통영시,055-650-4532,경상남도 통영시 세병로 27(문화동),34.84715495,128.423489
1170,2023 통영한산대첩축제,통영 삼도수군통제영 및 통영시 일원,2023-08-03,2023-08-12,고유제+군점+이순신장군 행렬+한산대첩 재현+학술발표회+통제영무과 체험마당,경상남도 통영시,055-650-4532,경상남도 통영시 세병로 27(문화동),34.84715495,128.423489
677,평창농악축제,용평면 장평리 일원,2022-09-02,2022-09-05,전국 농악 공연 + 민속놀이 체험,강원도 평창군청,033-332-4333,강원도 평창군 용평면 갈정지길 7,37.58939405,128.4160143
1067,당항포대첩축제,당항포관광지,2019-04-26,2019-04-28,"당항포대첩 재연, 공연등 다양한 문화행사",경상남도 고성군,055-670-4505,경상남도 고성군 회화면 당항만로 1116,35.05322615,128.3920276
1245,비산나루터 문화축제,비산나루터 체육공원,2023-10-01,2023-10-31,공연+체험+플리마켓,비산동체육회,,경상북도 구미시 비산동 1,36.12390586,128.3839118
676,평창백일홍축제,평창읍 평창강 일원,2022-09-06,2022-09-12,백일홍 산책길 걷기 + 떡메치기 체험,강원도 평창군청,033-335-6033,강원도 평창군 평창읍 제방길 81,37.36086086,128.3828721
675,평창효석문화제,봉평면 효석문화마을 일원,2022-09-03,2022-09-12,효석 백일장+문학100리길 걷기 등,강원도 평창군청,033-335-2323,강원도 평창군 봉평면 원길리 765-5,37.61309823,128.3709801
1268,단양온달문화축제,온달관광지 및 단양읍 일원,2023-10-06,2023-10-09,온달장군출정식+온달평강퍼레이드+국악버스킹+고구려복식체험 등,온달문화축제추진위원회,043-420-2552,충청북도 단양군 단양읍 중앙1로 10,36.98455598,128.3663012
869,구미 푸드페스티벌,송정동 복개천,2023-10-28,2023-10-29,공연+푸드존,경상북도 구미시청,054-480-5592,경상북도 구미시 송정동 505,36.11616508,128.3491387
1244,구미 독서문화 축제,구미시립도서관 + 형곡공원,2023-10-01,2023-10-31,전시+특강+체험+공연,경상북도 구미시청,054-480-4674,경상북도 구미시 경은로 85,36.1137978,128.3352215
1248,구미 라면축제,구미캠핑장 및 구미역(원평동)일원,2023-11-10,2023-11-12,공연+푸드존,경상북도 구미시청,054-480-2652,경상북도 구미시 원남로 8길 13,36.12629339,128.3309974
1247,구미 청춘 금오천 2.4km,금오천,2023-03-31,2023-04-04,공연+체험+마켓,경상북도 구미시청,054-451-0414,경상북도 구미시 남통동 414-34,36.12217559,128.3224418
1197,문경오미자축제,동로면 적성리 금천둔지 일원,2022-09-16,2022-09-18,문경오미자 홍보,경상북도 문경시청,054-571-7677,경상북도 문경시 동로면 노은2길 4,36.7715572,128.3153048
1246,구미한가위 전통연희축제,금오산도립공원 분수광장,2023-09-29,2023-09-30,공연+체험,(사)한국전통연희단체 총연합회 경상북도지회,054-457-1082,경상북도 구미시 남통동 289-3,36.11125615,128.3139126
674,계촌클래식축제,방림면 계촌리 계촌마을 일원,2022-08-27,2022-08-28,토크콘서트+재즈콘서트 등 클래식 공연,정몽구 재단 + 강원도 평창군청,070-7781-4847,강원도 평창군 방림면 계촌리 1440,37.4530586,128.3059711
187,삼강주막나루터축제,삼강문화단지,2023-09-29,2023-10-01,K-세일즈맨의 하루+보부상운동회,경상북도 예천군,054-650-6031,경상북도 예천군 풍양면 삼강리길 33,36.5638688,128.2992955
867,성주생명문화축제 성주참외페스티벌,성주군 성주읍 성밖숲 일원,2019-05-16,2019-05-19,"생명선포식, 개막식(주제 공연, 축하 가수 공연), 참외가요제, MBC태교음악회, 경상북도드림페스티벌, 태봉안행차재현 등",성주군 축제추진위원회,054-930-6763,경상북도 성주군 성주읍 성밖숲길 30,35.91576102,128.2800492
723,대가야체험축제,대가야박물관+ 대가야역사테마관광지+ 대가야문화누리+ 관내 일원,2022-05-05,2022-05-08,"36개 체험프로그램, 이조년 전국백일장 등 연계행사, 대가야박물관 기획특별전 등 부대행사, 역사재현극 등",고령군,054-950-6424,경상북도 고령군 대가야읍 대가야로 1216,35.72008225,128.259677
977,2016 대가야체험축제,"대가야박물관, 대가야역사테마관광지, 대가야문화누리, 관내 일원",2016-04-07,2016-04-10,"36개 체험프로그램, 이조년 전국백일장 등 연계행사, 대가야박물관 기획특별전 등 부대행사, 역사재현극 등",고령군,054-950-6424,경상북도 고령군 대가야읍 대가야로 1216,35.72008225,128.259677
988,제천국제음악영화제,제천시 일원,2023-08-10,2023-08-15,음악영화제,제천국제음악영화제집행위원회,043-646-2242,충청북도 제천시 의림대로12길 14-1,37.1493417,128.2160865
877,둔내고랭지토마토축제,둔내종합체육공원,2022-08-13,2022-08-15,토마토풀장+향토음식체험 등,강원도 횡성군 둔내면행정복지센터,033-340-2774,강원도 횡성군 둔내면 경강로 4708,37.516751,128.2137118
989,제천의병제,자양영당 등,2023-10-20,2022-10-22,의병제,제천문화원,043-642-3646,충청북도 제천시 의림대로 125,37.13923321,128.210774
1126,합천바캉스축제,정양레포츠공원,2023-07-29,2023-08-06,전국에서 가장 HOT한 합천에서 가족과 함께하는 바캉스,경상남도 합천군청,055-930-4666,경상남도 합천군 대양면 동부로 39-19,35.5573152,128.1675442
1012,함창명주페스티벌,명주테마공원,2018-09-07,2018-09-09,"누에고치 체험, 천연염색 등",경상북도 상주시청,054-531-9763,경상북도 상주시 함창읍 무운로 1593,36.5764616,128.1599209
1013,오감만족힐링페스티벌,경천섬 일원,2020-10-09,2020-11-08,"오감을 만족시키는 경천섬 가을여행 연출 및다양한 프로그램 전시, 체험, 공연, 경연  등",경상북도 상주시청,054-537-7108,경상북도 상주시 상산로 223,36.41138351,128.1587369
879,안흥찐빵축제,안흥찐빵모락모락마을 일원,2022-10-07,2022-10-09,안흥찐빵 시식 및 홍보+농경문화 체험+먹거리장터운영 등,강원도 횡성군 안흥면행정복지센터,033-340-2742,강원도 횡성군 안흥면 주천강로 1868,37.40978635,128.1554843
878,횡성더덕축제,청일면 유동3리 농거리축제장,2022-08-26,2022-08-28,더덕캐기체험+더덕품평회 등,강원도 횡성군 청일면행정복지센터,033-340-2832,강원도 횡성군 청일면 유동로 17,37.58392059,128.1502908
519,한국저작권위원회 2021년 11월 무료 온라인 교육 안내,온라인,2021-11-01,2021-11-30,2021년 한국저작권위원회 원격(온라인) 저작권 교육,한국저작권위원회,055-792-0228,경상남도 진주시 충의로 19,35.17824568,128.146167
1004,합천기록문화축제,대장경테마파크,2023-10-21,2023-11-05,전시 및 공연 등 기록문화를 느낄 수 있는 축제,경상남도 합천군청,055-930-4697,경상남도 합천군 가야면 가야산로 1160,35.76749785,128.1365362
295,제5회 인제가을꽃축제,용대관광지 일원,2023-09-22,2023-10-22,가을꽃축제,인제군문화재단,1577-8924,강원도 인제군 북면 용대리 1821-1 일원,37.99772638,128.098499
619,김천국제가족연극제,김천문화예술회관,2022-07-29,2022-08-07,연극공연,경상북도 김천시청,054-439-8245,경상북도 김천시 운동장길 3 김천문화예술회관,36.13824055,128.088634
196,진주남강유등축제,진주성 및 진주남강일원,2022-10-10,2022-10-31,"개제식(초혼점등), 소망등 달기, 추억의 유등띄우기, 창작등 전시, 진주성 둘레길등 전시, 한국의 등·세계풍물등 전시 등",경상남도 진주시청+진주문화예술재단,055-755-9111,경상남도 진주시 강남로 291번길 10,35.18725548,128.0855326
795,문경찻사발축제,문경새재 오픈세트장,2022-04-30,2022-05-08,대한민국 도예 명장전 등 전시행사+왕의 찻자리 등 체험행사+사기장의 하루+차담이 어드벤처 등 특별행사,경상북도 문경시청,054-550-6395,경상북도 문경시 문경읍 문경대로 2416,36.74062871,128.0845639
1196,문경약돌한우축제,문경새재 야외공연장일원,2022-11-04,2022-11-06,문경약돌한우 홍보,경상북도 문경시청,054-571-7677,경상북도 문경시 문경읍 새재로932,36.76160207,128.0769905
1198,문경사과축제,문경새재 야외공연장일원,2022-10-15,2022-10-31,문경사과 홍보,경상북도 문경시청,054-571-7677,경상북도 문경시 문경읍 새재로932,36.76160207,128.0769905
1195,문경찻사발축제,문경새재 오픈세트장,2023-04-29,2023-05-07,"전시행사 : 도예명장 특별전, 국제 교류전, 문경도자기 한상 차림전 등체험행사 : 찻사발 빚기·그리기, 찻사발원픽패스, 황금찻사발 찾기 등특별행사 : 생활자기·명품도자기 경매, 아름다운 찻자리, 사기장의 하루 등",경상북도 문경시청,054-550-6395,경상북도 문경시 문경읍 새재로 1037,36.77071342,128.0739524
1124,합천벚꽃마라톤대회,백리벚꽃길 코스,2023-04-02,2023-04-02,벚꽃길에서 펼쳐지는 달리미들의 대향연,경상남도 합천군청,055-930-4943,경상남도 합천군 대병면 합천호수로 197,35.531585,128.0295197
1113,황매산 억새 축제,황매산군립공원,2023-10-14,2023-10-29,황매산 억새를 즐기는 축제,경상남도 합천군청,055-930-4753,경상남도 합천군 가회면 황매산공원길 4,35.48184913,128.0037495
1125,황매산 철쭉제,황매산군립공원,2023-04-29,2023-05-14,황매산 철쭉을 즐기는 축제,경상남도 합천군청,055-930-4753,경상남도 합천군 가회면 황매산공원길 4,35.48184913,128.0037495
274,치악산왕발걸음축제,치악산 일원(구.드림랜드 주차장),2023-09-09,2023-09-09,걷기행사+작은음악회 등,치악산왕발걸음축제추진위원회,033-734-5966,강원도 원주시 소초면 평장동길 86-16,37.4186377,128.0031734
5,횡성한우축제,횡성종합운동장,2022-09-30,2022-10-04,한우구이터+횡성한우 발전포럼+횡성빛축제 등,강원도 횡성군청,033-340-5712,강원도 횡성군 횡성읍 문화체육로 57,37.49608715,127.9891498
880,횡성한우축제,횡성종합운동장,2022-09-30,2022-10-04,한우구이터+횡성한우 발전포럼+횡성빛축제 등,강원도 횡성군청,033-340-5712,강원도 횡성군 횡성읍 문화체육로 57,37.49608715,127.9891498
1001,도솔산지구전투 전승행사,도솔산전적비,2022-06-19,2022-06-19,추모식,(사)양구군축제위원회+해병대전우회중앙회+해병대사령부,033-480-2230,강원도 양구군 양구읍 박수근로 366-33,38.10632441,127.981517
1174,달맞이축제,"국토정중앙점, 레포츠공원(평화공업사 앞 주차장)",2020-02-08,2020-02-08,"국토정중앙행사, 전통달맞이행사, 민속놀이경연,상설행사 등",양구문화원,033-480-2510,강원도 양구군 양구읍 박수근로 366-33,38.10632441,127.981517
1363,제15회 불교문화제전,성철공원,2023-10-14,2023-10-14,음악회+불교문화체험 및 전시,경상남도 산청군청,055-970-6401,경상남도 산청군 단성면 묵곡리 949,35.277656,127.964971
100,원주 평생학습 축제,원주문화원 일원,2023-10-06,2023-10-07,개막식+공연+전시+체험 등,원주시 평생교육원 학습관,033-737-3808,강원도 원주시 원일로 139,37.3515851,127.9467947
6,원주다이내믹댄싱카니발,댄싱공연장 및 원일로 일원,2022-10-01,2022-10-03,"댄싱경연, 문화예술공연, 각종 체험 등",강원도 원주시청+제36사단,033-737-5132,강원도 원주시 단구로 170,37.33642953,127.9462614
95,치악산복숭아축제,댄싱공연장 일원,2023-08-01,2023-08-01,지역 복숭아 판매+품평회+기타 등,치악산복숭아 원주시협의회,033-737-4131,강원도 원주시 단구로 170,37.3364295,127.9462614
96,2023 원주 댄싱카니발,댄싱공연장 일원,2023-09-22,2023-09-24,댄싱경연+문화예술공연+각종 체험 등,강원도 원주시청,033-737-5123,강원도 원주시 단구로 170,37.3364295,127.9462614
98,치악산한우축제,댄싱공연장 주차장,2023-10-01,2023-10-01,지역 한우 판매 등,농업기술센터 축산과,033-737-4195,강원도 원주시 단구로 170,37.3364295,127.9462614
99,원주 독서대전,시립중앙도서관,2023-10-01,2023-10-01,학술토론+전시체험 등,평생교육원 시립중앙 도서관,033-737-3817,강원도 원주시 단구로 170,37.3364295,127.9462614
97,원주삼토페스티벌,종합운동장 일원,2023-09-14,2023-09-17,농촌문화체험+지역먹거리 판매 등,강원도 원주시청+원주시농업인단체연합회,033-737-4155,강원도 원주시 서원대로 311,37.3368381,127.943687
1384,치악산배축제,원주원예농협 하나로마트광장,2023-11-01,2023-11-01,지역 배 판매+품평회 등,치악산배원주시협의회,033-737-4131,강원도 원주시 무실로 182,37.3414432,127.9392853
1005,충주DIVE페스티벌,충주탄금호국제조정경기장~중앙탑공원 일원,2023-06-15,2023-06-18,수상불꽃+뮤직페스티벌+드론쇼+키즈파크 운영,충청북도 충주시청,043-851-7981,충청북도 충주시 중앙로 128,36.97061868,127.9372208
275,제25회 원주한지문화제,원주한지테마파크 일원,2023-05-05,2023-05-14,기획전시+온라인체험 등,한지개발원,033-734-4739,강원도 원주시 한지공원길 151,37.3343755,127.9353957
276,제16회 용수골꽃양귀비축제,용수골꽃농장,2023-05-23,2023-06-11,꽃밭관람+포토존 이용+기념품 판매 등,용수골꽃양귀비축제추진위원회,033-764-4443,강원도 원주시 한지공원길 151,37.3343755,127.9353957
622,한지문화제,원주한지테마파크 및 간현관광지 일원,2022-05-05,2022-05-31,"기획전시, 온라인체험 등",원주한지개발원,033-734-4739,강원도 원주시 한지공원길 151,37.33437553,127.9353957
1362,제17회 기산국악제전,기산국악당+동의보감촌,2023-09-22,2023-09-23,추모제+박헌봉 국악상 시상+국악한마당공연+전국국악경연대회,경상남도 산청군청,055-970-6401,경상남도 산청군 단성면 상동길 69,35.27616022,127.934248
277,제21회 장미축제,장미공원,2023-05-30,2023-06-01,장미가요제 등,장미축제위원회,033-000-0000,강원도 원주시 장미공원길 67-16,37.34588179,127.9311849
113,2023년 제15회 대한민국 청소년 트로트 가요제,스포츠파크 일원,2023-05-20,2023-05-20,청소년 트로트 가요제 결선,(사)한국예술문화단체총연합회 거창지회,055-943-0123,경상남도 거창군 거창읍 중앙로 103,35.68667584,127.9095332
188,2022년 거창크리스마스트리문화축제,거창로터리 일원,2022-12-04,2023-01-25,메인트리 및 포토존 등 트리장식 설치+문화예술공연 동영상 중계 등,거창크리스마스트리문화축제위원회,055-943-3579,경상남도 거창군 거창읍 중앙로 103,35.68667584,127.9095332
189,2022년 거창한마당대축제,스포츠파크 일원,2022-09-29,2022-10-02,아림예술제+군민체육대회 등,거창문화재단,055-940-8458,경상남도 거창군 거창읍 중앙로 103,35.68667584,127.9095332
190,2023년 부처님 오신 날 연등축제,거창군청 앞 문화광장,2023-05-06,2023-05-27,부처님 오신 날 연등 점등식,(사)거창불교사암연합회,055-940-3413,경상남도 거창군 거창읍 중앙로 103,35.68667584,127.9095332
1259,충주DIVE페스티벌,"탄금호조정경기장, 중앙탑공원 일원",2023-06-15,2023-06-18,수상공연+버스킹+매직저글링+마임+한국무용 등,충청북도 충주시청,043-850-6720,충청북도 충주시 중앙탑면 중앙탑길 150,37.02308381,127.8619248
1361,제47회 남명선비문화축제,한국선비문화연구원,2023-10-20,2023-10-21,남명제례+개막식+공연+경연+전시+체험행사,경상남도 산청군청,055-970-6401,경상남도 산청군 시천면 남명로240번길 33,35.276319,127.846049
1386,제23회 섬강축제,간현관광지 일원,2023-09-01,2023-09-03,버스킹 공연+농특산물 직거래 장터 운영 등,섬강축제위원회,033-737-5504,강원도 원주시 소금산길 12,37.36457641,127.834038
1314,함양연암문화제,안의면 오리숲일원,2023-08-25,2023-08-26,학술대회+연암역사 퀴즈대회+연암 부임행차+연암제례+축하공연+군민노래자랑,경상남도 함양군,055-960-4510,경상남도 함양군 안의면 금천리 241,35.63129664,127.812171
94,치악산찰옥수수축제,문막체육공원,2023-07-01,2023-07-01,지역 옥수수 판매 및 농특산물 직거래장터 운영 등,문막농업협동조합,033-737-1164,강원도 원주시 문막읍 문막리 329-45,37.3087155,127.8115249
322,천년 고려 숨결로 만나는 청평유람淸平流覽 좋을씨구,청평사 유튜브(온라인),2022-10-28,2022-10-28,천년 고려 숨결로 만나는 청평유람 좋을씨구,대한불교조계종 청평사,,강원도 춘천시 북산면 오봉산길 810 청평사,37.985956,127.808788
258,여수향일암일출기원한마당,돌산읍 임포마을 일원,2023-12-31,2024-01-01,재야의종타종식+일출기원제례+소망행사,전라남도 여수시청,061-659-4743,전라남도 여수시 향일암로 60 종무소,34.59379448,127.8029861
433,Your Body,후용공연예술센터,2022-02-24,2022-02-26,전쟁으로 인한 트라우마를 가진 몸의 자우와 평화를 찾는 전쟁연작,극단노뜰,033-732-0827,강원도 원주시 문막읍 비야동길 11,37.273986,127.802217
253,괴산고추축제,유기농엑스포광장 일원,2022-09-01,2022-09-04,세계고추전시회 고추품평회 황금고추를 찾아라 속풀이고추난타 등,충청북도 괴산군청,043-830-3462,충청북도 괴산군 괴산읍 임꺽정로 75,36.8134338,127.788528
1385,반계리 은행나무축제,반계리 은행나무광장,2023-11-04,2023-11-04,기획전시+체험프로그램 운영 등,반계권역창조적마을,033-000-0000,강원도 원주시 문막읍 반계리 1495-1,37.2942081,127.7884224
1266,괴산고추축제,유기농엑스포광장 일원,2023-09-01,2023-09-01,고추장담그기체험 깜짝고추경매 황금고추를찾아라 속풀이고추난타 등,충청북도 괴산군청,043-830-3463,충청북도 괴산군 괴산읍 임꺽정로 90,36.81574898,127.787533
1263,영동포도축제,영동레인보우힐링관광지 일원,2023-08-01,2023-08-01,포도밟기체험+포도따기체험+추풍령가요제+난전시 등,충청북도 영동군청,043-740-3214,충청북도 영동군 영동읍 영동황간로 122,36.16401625,127.7819484
1286,광양전어축제,진월면 망덕포구 일원,2023-09-01,2023-09-01,공연+경연+체험+전시+판매+부대행사,전라남도 광양시청,061-797-3679,전라남도 광양시 진월면 망덕길 265,34.97164706,127.7587907
215,안성환 무심 無心 -쉬어 가다,개나리미술관,2022-05-24,2022-06-05,개나리미술관에서는 5월 24일부터 6월 5일까지 안성환작가의 조각전을 개최,안성환,,강원도 춘천시 동내면 거두택지길44번길 7-19,37.85454653,127.758295
537,한동국 현관문,개나리미술관,2022-09-02,2022-09-18,"개나리미술관에서 원주출신,한동국의 첫 개인전을 개최",강원문화재단,070-8095-3899,강원도 춘천시 동내면 거두택지길44번길 7-19,37.85454653,127.758295
539,할말하않 황효창展,개나리미술관,2022-08-16,2022-08-28,황효창 작가의 초대전,개나리미술관,070-8095-3899,강원도 춘천시 동내면 거두택지길44번길 7-19,37.85454653,127.758295
546,개나리미술관 신진작가공모 선정작가전-최인엽,개나리미술관,2022-04-22,2022-05-05,신진작가공모 선정작가전-최인엽,개나리미술관,070-8095-3899,강원도 춘천시 동내면 거두택지길44번길 7-19,37.85454653,127.758295
1032,개나리아트페어2022,개나리미술관,2022-04-05,2022-04-17,긴 겨울을 기다린 후에 개화하는 봄꽃’과 같은 아트페어,fog.n,070-8095-3899,강원도 춘천시 동내면 거두택지길44번길 7-19,37.854552,127.758253
610,무하 MOOHA SPACE OF YANGYANG,개나리미술관,2022-07-19,2022-07-31,동해바다가 보이는 양양에서 온 작가 무하의 개인전을 개최,양양문화복지재단 후원,070-8095-3899,강원도 춘천시 동내면 거두택지길44번길 7-19,37.854513,127.758243
118,이계통간異系統間 배요한 박예지 2인전,개나리미술관,2022-08-02,2022-08-14,배요한x박예지 이계통간(異系統間),개나리미술관,070-8095-3899,강원도 춘천시 동내면거두택지길44번길7-19,37.854519,127.758213
317,진주영 틈,개나리미술관,2022-11-29,2022-12-11,"작가는 소멸 이후에 재탄생되는 것들 위로 연약하지만 찬란하게 숨 쉬며 존재하는 것들을 시각화 하고자 하였다. 이러한 주제 의식을 통해 우리가 살아가고 있는 주변의 비조명된 것들과 그 가치를 인식하고, 각자의 환상 속에서 숨 쉬고 있는 것들의 의미를 모색해보는 시간이 되었으면 한다.",진주영,070-8095-3899,강원도 춘천시 동내면 거두택지길44번길 7-19,37.854519,127.758213
324,길종갑 사창리사람들,개나리미술관,2022-11-15,2022-11-27,"질병과 참사가 모두의 마음을 얼어붙게 하는 이 시대에,모든 살아있는 존재들에 대한 수평적인 공존을 말하는 작가의 순박한 시선을 통해,각자에게 내재된 가장 순수한 본성으로 돌아가 보는 시간이 되었으면 한다.",길종갑,070-8095-3899,강원도 춘천시 동내면 거두택지길44번길 7-19,37.854519,127.758213
701,조정태 갈림길을 지나며 Passing the crossroads,개나리미술관,2022-11-01,2022-11-13,"조정태 작가의 사회와 자연, 인간에 대한 시선의 확장과 깊이를 엿볼 수 있는 시간",길종갑,070-8095-3899,강원도 춘천시 동내면 거두택지길44번길 7-19,37.854519,127.758213
132,2022 춘천도서전-춘천 쓰고 읽고 말하다.,춘천시립도서관일대,2022-10-22,2022-10-23,춘천지역출판연대가 주최하는 이번 도서전은 지역의 숨은 작가를 찾아 독자들과 이어주는 지역작가와 독자의 만남을 주요 목표로 하고 있다.,춘천지역출판연대,033-251-9362,강원도 춘천시 우석로 100,37.86198997,127.7550186
614,시민과 함께하는 라이브러리 치유 콘서트,춘천시립도서관 1층 로비,2022-07-09,2022-07-09,"클래식의 기본을 유지하면서도 남녀노소, 시민 누구나 즐기고 좋아할 수 있는 음악을 연주. 현악, 목관, 금관, 타악을 갖춘 대편성의 시민오케스트라로서 다양한 연주를 함.",춘천시립도서관+춘천시민필하모닉오케스트라,,강원도 춘천시 우석로 100,37.86198997,127.7550186
122,2020 강원문화재단 원로예술인 공연 생일 - The Dark,춘천 소극장 Zone,2020-08-03,2020-08-09,강원도 대표 연극인 김경태 원로예술인의 대표작 생일 - The Dark,강원문화재단,033-240-1347,강원도 춘천시 세실로 267 (후평동),37.880636,127.754584
1180,제4회 양평부추축제,양동역 일원,2023-09-16,2023-09-17,양동면의 특산품인 부추로 다양한 음식과 더불어 을미의병 발상지로서 의병출정식 등 행사,양평부추축제추진위원회,031-774-3253,경기도 양평군 양동면 양동역길 19,37.42030404,127.7544833
1360,제50회 지리산평화제,지리산 신선너들+산청공설운동장+성철공원,2023-10-10,2023-10-14,지리산 산신제+평화상 시상+민속행사+원혼 위령제,경상남도 산청군청,055-970-6401,경상남도 산청군 시천면 지리산대로 520,35.293748,127.754118
907,제20회 춘천국제고음악제,국립춘천박물관+춘천시청+천주교 춘천교구 애막골 성당,2022-09-16,2022-09-23,춘천국제고음악제,(사)춘천국제고음악제,,강원도 춘천시 우석로 70 국립춘천박물관,37.86371,127.752516
43,2022년 강원PAX아라리 제 3회 정기연주회,국립춘천박물관 중앙홀,2022-06-29,2022-06-29,"강원팍스아라리 주관으로 수원대학교 교수 박영란 작곡가에게 위촉한 6곡의 아리랑을 피아노(4명의 피아니스트)와 국악기(7명의 국악기 연주자)가 함께 앙상블로 연주한다. 국악과 양악의 콜라보레이션으로서, 한국 전통 민요인 아리랑을 새롭게 재창조하며 다채로운 해석을 통하여 대중적으로 다가가는 공연이 될 것이다.",강원팍스아라리,,강원도 춘천시 우석로 70 국립춘천박물관,37.86401877,127.7521907
221,2022 청년 문화정책을 더하다,국립춘천박물관 강당,2022-11-29,2022-11-29,청년 문화 인력양성과 정책 지원 방법,문화체육관광부,02-3143-1232,강원도 춘천시 우석로 70(석사동),37.86401877,127.7521907
906,2022 리얼노상댄스펍,애막골 우석초등학교 인근 거리,2022-09-14,2022-09-17,"로드 스테이지, 노상살롱, 유스클럽, 랜덤플레이 댄스, M에스Z숍",(사)춘천마임축제,033-242-0585,강원도 춘천시 애막골길16번길 6,37.86466554,127.7496908
264,Green life Green art,갤러리공간제로,2022-06-24,2022-06-30,자연과 조화를 위해 친환경 삼유를 소재로한 공예전,춘천민예총 공예협회,033-251-9363,강원도 춘천시 동면 공단로 104,37.895357,127.748964
533,2022 서현종 개인전,공간 제로(zero),2022-10-01,2022-10-10,2022 서현종의 11번째 개인전-그의 이야기속에 나오는 나무 한 그루展,서현종,,강원도 춘천시 동면 공단로 104,37.895357,127.748964
117,춘천전쟁과 일상 국제문학포럼 2020 -한국전쟁 후-,강원대학교 글로벌경영관 AMP강의실 103호,2020-02-05,2020-02-05,강연 및 토론,강원문화연구소 중점연구소사업단+강원대학교 지역사회연구,033-245-6603,강원도 춘천시 강원대학길 1,37.86802431,127.7483874
138,제2회 호반음악제 피아졸라 나이트클럽 인 춘천,강원대 백령아트센터,2021-12-18,2021-12-18,제2회 호반음악제 피아졸라 나이트클럽 인 춘천,강원도민일보+춘천시,033-260-9331,강원도 춘천시 강원대학길 1,37.86802431,127.7483874
139,제4회 셰익스피어 페스티벌 셰익스피어 맥베스를 연주하다,강원대학교 백령아트센터,2021-11-19,2021-11-19,"제4회 셰익스피어 페스티벌-셰익스피어,맥베스를 연주하다",셰익스피어와 함께하는 세상,033-250-7909,강원도 춘천시 강원대학길 1,37.86802431,127.7483874
535,강원대학교 산학협력단 K-Digital Training 제2기 교육생 모집,강원대학교 춘천캠퍼스,2022-10-04,2023-03-13,언리얼엔진 기반 메타버스 개발자 양성 과정 교육생 모집,강원대학교 산학협력단,033-250-8945,강원도 춘천시 강원대학길 1,37.86802431,127.7483874
538,2022 춘천학 학술대회 댐과 춘천의 미래,강원대학교 60주년기념관 국제회의실,2022-08-26,2022-08-26,2022 춘천학 학술대회,춘천문화원 춘천학연구소,033-244-5106,강원도 춘천시 강원대학길 1,37.86802431,127.7483874
654,강우성의 피아노 독주회 8 두 사람의 여정,강원대학교 백령아트센터,2022-09-07,2022-09-07,"피아노 음악의 두 거장, 쇼팽과 리스트의 음악을 비교·감상해보며 관객과 대화하고 사유해보는 의미 있는 시간으로 독주회 공연",강우성,033-250-8730,강원도 춘천시 강원도대학길 1,37.86802431,127.7483874
902,제3회 호반음악제-어느 여름날,춘천 강원대학교 백령아트센터,2022-08-20,2022-08-20,제3회 호반음악제-어느 여름날(One Summer Day),강원도민일보,033-260-9331,강원도 춘천시 강원대학길 1,37.86802431,127.7483874
93,제13회 남한강축제,법천소공원,2023-07-29,2023-07-30,문화예술공연+노래자랑 등,남한강축제위원회,033-737-5630,강원도 원주시 부론면 앙암로 1234,37.20602239,127.7482249
1102,제28회 남도음식문화큰잔치,여수 세계박람회장 일원,2022-10-07,2022-10-09,상달행렬+천인오찬+달빛야시장+전시판매+경연대회 등,전라남도청+전라남도 여수시청,061-286-5771,전라남도 여수시 박람회길 1,34.75218956,127.7465005
219,연극뷰티풀라이프-춘천,소극장 연극바보들,2022-05-01,2022-07-31,연애에서 부터 결혼까지의 인생을 담은 연극,사회적협동조합 무하,,강원도 춘천시 서부대성로239번길 7,37.873327,127.744841
652,음악극 브릴리언트-찬란하게 빛나던,소극장 연극바보들,2022-09-03,2022-10-23,따사로운 봄처럼 따듯한 사랑 너에게 들려주고 싶은 어쿠스틱 멜로,사회적협동조합 무하,,강원도 춘천시 서부대성로239번길 7,37.873304,127.744831
125,춘천선열의 얼과 소통하다 한중수교 30주년기념 국제 초청 서예전 강원서예협회 정기전,춘천문화원 의암전시실,2022-10-17,2022-10-20,춘천은 애국 충정의 도시로 애향 선열의 얼을 이어 담은 작품 전시. 서예가 정광옥 비롯하여 한국작가와 중국작가 43명 전시,(사)강원여성서예협회,033-253-2992,강원도 춘천시 퇴계농공로 40(퇴계동),37.849556,127.7436554
480,춘천아트페스티벌,네이버TV 춘천아트페스티벌 채널+유튜브 춘천아트페스티벌 채널,2020-08-14,2020-08-23,춘천의 순수 공연에술 축제,강원도 춘천시청+사단법인 텐스푼,033-251-0545,강원도 춘천시 춘천로281번길 15 A동 503호,37.881501,127.743005
637,김덕림 개인전 나를 사랑한 색 - 어울림의 빛을 나누다,예담더 갤러리+춘천미술관,2022-11-01,2022-12-04,"창의적 색상의 수채화로 풍경, 정물, 인물화의 전시회",김덕림,,강원도 춘천시 도화길6번길 9,37.875012,127.7368444
257,여수밤바다 불꽃축제,이순신 광장 및 장군도 앞 해상,2023-10-28,2023-10-28,공연행사+불꽃쇼+불꽃사진콘테스트,전라남도 여수시청,061-659-4742,전라남도 여수시 중앙동 385-6,34.7388016,127.7366067
635,여수거북선축제,이순신광장 및 선소일원,2023-05-04,2023-05-07,통제영길놀이+개막행사+각종체험공연행사,전라남도 여수시청,061-659-4743,전라남도 여수시 이순신광장로 95,34.73922445,127.7365808
762,시민이 상상한 옥상 현실이 되다 옥상상상,커먼즈필드 옥상,2021-06-24,2021-07-10,"활동가나 기관이 아닌 시민이 상상하고 준비한 행사로, 3주동안 옥상에서 다양한 프로그램을 진행한다.",춘천사회혁신센터,033-912-5000,강원도 춘천시 공지로 255,37.86462536,127.735458
514,지식정보화시대 책이 밥 먹여 주는 시대,춘천사회혁신센터내 안녕하우스,2022-08-10,2022-08-10,아이들 독서 교육 강연,춘천시민언론협동조합 주간신문 춘천사람들,033-252-6217,강원도 춘천시 공지로 255,37.864634,127.735428
216,2022 강원도 지역문제 발견 오픈테이블,커먼즈필드 춘천_안녕하우스,2022-05-09,2022-05-19,강원지역문제해결플랫폼은 강원도민이 제안한 지역 문제를 공공기관의 자원을 연결하여 지역주민과 함께 리빙랩 방식으로 해결하기 위해 노력하고있습니다. 2022년에도 지역 주민중심으로 지역의 문제를 제안 받는 지역문제발견 오픈테이블을 진행 중입니다. 플랫폼 과정을 통해 선정된 의제는 500~1000만원의 실험비로 지역의 문제를 해결할 수 있는 실험을 진행할 수 있습니다.,강원지역문제해결플랫폼 추진위원회,033-252-1090,강원도 춘천시 공지로 255(효자동),37.86462536,127.735421
482,슬기로운 협동생활,커먼즈필드춘천,2020-07-04,2020-07-04,슬기로운 협동생활,강원도 춘천시청,033-910-0201,강원도 춘천시 공지로 255,37.86462536,127.735421
522,2021 청년청 일자리 지원사업 글로벌기업취업JOB GO 시즌2 모집안내,온라인,2021-10-30,2021-11-30,2021년 청년들의을 위한 취업콘서트와 그룹멘토링,춘천시 청년청,033-910-3120,강원도 춘천시 공지로 255 3층,37.86462536,127.735421
523,춘천시 청년청 청춘클라스 3차 네트워킹데이 춘천의 길 투어프로그램,커먼즈필드,2021-10-30,2021-10-30,춘천의 길_투어프로그램,춘천시 청년청,033-910-3107,강원도 춘천시 공지로 255,37.86462536,127.735421
728,2022 청춘의회 제3기 청년의원,춘천시 청년청,2022-03-16,2022-03-31,청년이 함께 모여 생각을 공유하는 청춘모임,춘천시 청년청,033-910-3106,강원도 춘천시 공지로 255,37.86462536,127.735421
729,음악으로 지역을 잇다 뮤지컬 @춘천 참가자 모집,커먼즈필드 춘천 안녕하우스,2022-03-14,2022-03-28,지역의 이야기를 담은 음악 만들기,나우사회혁신네트워크+나우뮤직랩+나우사회혁신랩,033-912-5001,강원도 춘천시 공지로 255,37.86462536,127.735421
1162,제3기 청년기자단 모집,커먼즈필드 춘천 3층,2022-03-02,2022-03-18,청년의 눈으로 바라본 춘천의 모습을 전하는 춘천시 청년청의 스토리텔러,춘천시 청년청,033-910-3108,강원도 춘천시 공지로 255,37.86462536,127.735421
1164,뉴웨이브 로컬 임팩트 아카데미,커먼즈필드,2022-02-15,2022-03-02,사회적경제에 대한 기초 이해와 함께 지역의 문제를 해결,춘천시협동조합지원센터,033-910-0203,강원도 춘천시 공지로 255,37.86462536,127.735421
479,창작뮤지컬 흰 사과나무,한림대학교 일송아트홀,2020-01-18,2020-01-18,창작뮤지컬 흰 사과나무,신북문화예술공동체,,강원도 춘천시 한림대학길 1,37.88542866,127.7349573
698,보드게임 디자인 워크숍 - 나만의 보드게임 만들기,한림대학교 산학협력관 1층 메이커스페이스,2022-11-19,2022-12-03,나만의 보드게임 만들기,한림대학교 메이커 스페이스 팹랩강원,033-248-3309,강원도 춘천시 한림대학길 1,37.88542866,127.7349573
142,2021춘천마임축제 도깨비 유랑단,아르숲 생활문화센터+꿈마루 청소년 수련관+약사천 수변공원,2021-11-08,2021-11-12,2021춘천마임축제 도깨비 유랑단,춘천마임축제,033-242-0585,강원도 춘천시 효석로9번길 13,37.865023,127.7344985
608,2022 도시재생 청소년 메이커스쿨,우두동 50호마을 커뮤니티센터,2022-08-03,2022-09-04,4가지 프로그램을 통해 청소년의 시선으로 50호 마을을 바라보고 각각의 방식으로 표현하는 체험 프로그램,춘천도시재생지원센터,033-256-5401,강원도 춘천시 충열로67번길 7-1,37.900237,127.734436
1030,물의 감정 In The Mood For Water,갤러리 공간 공일,2022-02-18,2022-02-24,춘천 대표자원인 물을 주제로 한 로켈크리에이터 간의 협업 전시,소양하다+르사봉+예술밭사이로,033-248-7900,강원도 춘천시 향교앞길 13-4,37.87993475,127.7344005
211,만나고 싶었습니다 - 창작의 자극 그리고 예술로 환기,공간공일갤러리,2022-03-04,2022-03-16,"작가들은 각자 그동안 사회적 거리두기 상황으로 예술적 자극의 기회를 갖지 못했거나 자발적 절제로 동기부여의 활동을 할 수 없었다면 위드코로나로 전환된 지금 그 동기와 자극을 찾을 수 있는 방법을 제시하고자 한다. 언젠가는 만나 이야기하고 싶었던 동경의 대상, 작가를 만나거나, 꼭 한번 가보고 싶었던 미술관 혹은 어떤 전시 등을 가보거나, 경험하고 싶었던 나름의 활동을 경험해보거나 등등을 실현에 옮긴 후 그러한 시간과 행위와 경험에서 받은 영감이나 자극, 창의적 동기를 담아 새로운 창작물을 구상한다. 작가는 기존의 작업 스타일에서 벗어나는 방법으로 창작의 장르를, 방법을, 전시구성 등등 기존의 스타일에서 잠시 이탈해본다. 그렇게 제작된 작품을 공간공일 전시장에서 3월 4일부터 3월 16일까지 전시하게 된다. 또한 작가와의 대화 시간을 통해 관객과 소통하고 창의적 동기를 전달할 계획이다. 그렇게 관객은 전시된 작품과 소통의 시간으로 잠시나마 일상에서 닫힌 창을 열고 예술로 환기할 수 있는 기회를 가진다.",예술밭사이로,,강원도 춘천시 향교앞길 13-4 1층,37.879892,127.734359
549,만나고 싶었습니다 창작의 자극 그리고 예술로 환기,공간공일갤러리,2022-03-04,2022-03-16,코로나19로 예술적 활동의 위축과 교류의 단절로 가라앉은 작가들의 창작 동기를 일깨워 그 동기부여의 방법을 작가마다 나름의 방식대로 찾아보고 그 결과물을 일반 대중과 함께 나누는 예술로 환기하기 프로젝트,예술밭사이로,,강원도 춘천시 향교앞길 13-4 1층,37.879892,127.734359
217,제 29회 봄내예술제 봄내미술인전_시민과 예술인의 만남,춘천미술관 전관,2022-05-13,2022-05-25,"29회 봄내예술제의 세부 행사인 시민과 작가 159명이 참여한 2022 봄내 미술인전’이 열립니다. 서양화 56점, 수채화 41점, 한국화 25점, 서예·문인화 20점, 공예·디자인 12점, 조소 5점을 소개합니다.",(사)한국예술문화단체총연합회 춘천지회,033-241-1856,강원도 춘천시 서부대성로 71,37.88237413,127.731376
120,최정숙 개인전 호모 하모니쿠스 Homo Harmonicus,춘천미술관,2020-07-31,2020-08-06,최정숙 개인전 호모 하모니쿠스 Homo Harmonicus,최정숙,,강원도 춘천시 서부대성로 71,37.88237413,127.7313736
124,춘천뿌리展_The Exhibition of Roots,춘천미술관 전관,2022-09-30,2022-10-06,춘천뿌리展_The Exhibition of Roots,춘천뿌리전,033-241-1856,강원도 춘천시 서부대성로 71(옥천동),37.88237413,127.7313736
129,김홍열 사진전_Moment,춘천미술관 1F,2022-09-23,2022-09-28,김흥열 사진전,김홍열,033-241-1856,강원도 춘천시 서부대성로 71(옥천동),37.88237413,127.7313736
130,老雲 安淙重 篆刻展노운 안종중 전각전_안종중 개인전,춘천미술관 2F,2022-09-16,2022-09-28,시백 안종중 선생의 전각예술세계를 볼 수 있는 전시,안종중,033-241-1856,강원도 춘천시 서부대성로 71(옥천동),37.88237413,127.7313736
131,소小 소素 소笑_김현숙 개인전,춘천미술관 1F,2022-09-16,2022-09-21,삶은 기억의 총합이며 색을 입힌 파트이다. 그러므로 사소한 것도 나에게는 이유 이자 힘이다.,김현숙,033-241-1856,강원도 춘천시 서부대성로 71(옥천동),37.88237413,127.7313736
320,김명숙 영혼의 정원,춘천미술관 전관,2022-11-25,2022-11-30,"바느질, 화면에 닿는 손을 통해 섬유의 물성이 작가의 심성에 고스란히 스며들기에 융합되기에 가능하다고 해석된다.",김명숙,033-241-1856,강원도 춘천시 서부대성로 71,37.88237413,127.7313736
321,제18회 춘천현대사생대회展,춘천미술관 전관,2022-11-18,2022-11-23,2022 보내공 안풍경 밖풍경,춘천현대사생회,033-241-1856,강원도 춘천시 서부대성로 71,37.88237413,127.7313736
327,강원도립극단 연극 카페인,춘천봄내극장,2022-12-09,2022-12-11,잠의 사탄이 앞에 나타나 달아나야해 갖다놔 더 강한 카페인,강원도립극단,033-255-0496,강원도 춘천시 서부대성로 71 봄내극장,37.88237413,127.7313736
612,제2회 春川共感展_춘천공감전,춘천미술관 1F,2022-07-15,2022-07-20,회원들과 조합원이 함께 소통의 기회를 갖고자 회원 작가님들을 초대,사회적협동조합 예술공감,033-241-1856,강원도 춘천시 서부대성로 71,37.88237413,127.7313736
638,윤운복 개인전 Remember60展,춘천미술관 2F,2022-10-21,2022-10-26,"마음속 잃어버린 꿈과 희망을 필름과 영상모니터를 오브제로 작업한 작품으로 과거와 현재의 경계를 허물고, 아날로그 필름을 통해 구동되는 Remember60의 기계적 매커니즘을 키네틱아트 장치 전시회",윤운복,033-241-1856,강원도 춘천시 서부대성로 71,37.88237413,127.7313736
692,The 4th Exhibition 2022 김운연의 Harmony-Breathe 숨쉬다,춘천미술관,2022-11-11,2022-11-16,"동물들의 이미지를 추상적인 표현위에 자연으로부터 오는 기운과 희망, 신비스러움을 다양한 소재와 표현법으로 연출해 화면을 구성해 나갔다.",김운연,033-0241-1856,강원도 춘천시 서부대성로 71,37.88237413,127.7313736
696,하림 권매화 개인전 내일을 꿈꾸다,춘천미술관 1F,2022-11-04,2022-11-09,"순수한 자연을 주제로 꽃과 나비, 새, 자연이 어우러져 소통하고 융화하는 의미를 가지고 있으며 맑고 깨끗한 자연속에 풍요로움과 평화로움으로 우주의 기운을 담아 표현한 작품 전시회",권매화,033-241-1856,강원도 춘천시 서부대성로 71,37.88237413,127.7313736
702,해와 달을 삼킨 소양강,춘천미술관 제1 전시실,2022-10-28,2022-11-02,춘천의 10대 청소년 30명과 함께 진행한 문화예술교육 작품 전시회,문화체육관광부+강원도,033-241-1856,강원도 춘천시 서부대성로 71,37.88237413,127.7313736
759,Re Birth - 다시 삶으로,춘천미술관 1F,2022-04-15,2022-04-20,"다시, 삶 이라는 두 개의 단어로 구성되어 있다.다시는 이전에 이미 무언가가 있었다는 전제가 내포되어 있으며.삶에는 탄생이라는 전체적 사건이 있어야 한다.즉, 다시 삶은 재탄생(Rebirth)에서 시작되고 이어진다.",홍연화,033-241-1856,강원도 춘천시 서부대성로 71,37.882393,127.7313736
760,연극 알자스 지방의 세입자,봄내극장,2022-04-16,2022-04-17,중학생 이상 관람가 (보호자 동의 시 초등생 입장가능),신북문화예술공동체,,강원도 춘천시 서부대성로 71,37.88237413,127.7313736
774,이형석 개인전 그것들은 다 옷같이 낡으리니,춘천미술관 제2전시실,2022-03-25,2022-03-30,50을 앞두고 대학시절부터 현재까지 사회적 변화와 개인적인 감성을 다양한 기법으로 풀고자 했던 작품을 모아 첫 개인전,이형석,033-241-1856,강원도 춘천시 서부대성로 71,37.88237413,127.7313736
775,춘천의 겨울을 마주하다_황순란,춘천미술관 1F,2022-03-25,2022-03-30,춘천에서 10년 동안 그리기를 지속해 온 작가의 작품,황순란,033-241-1856,강원도 춘천시 서부대성로 71,37.88237413,127.7313736
432,文美貪,춘천미술관 2F,2022-02-27,2022-03-08,가장 먼저 시들지 않는 꽃으로 봄을 알려 마음의 봄 향기를 넣어줄 전시,춘천미술관,033-241-1856,강원도 춘천시 서부대성로 71,37.88237413,127.731341
534,제19회 겸로 이형제 개인전 봄내의 골목길-어제와 오늘,춘천미술관 1층,2022-09-09,2022-09-14,제19회 겸로 이형제 개인전 봄내의 골목길-어제와 오늘,이형제,033-241-1856,강원도 춘천시 서부대성로 71,37.88237413,127.731335
536,자연과 영혼을 담은 구자근展,춘천미술관 전관,2022-09-02,2022-09-07,자연과 영혼을 담은,구자근,033-241-1856,강원도 춘천시 서부대성로 71,37.88237413,127.731335
540,힘찬 제왕수탉_ 제왕수탉 힘찬울림 Coq-imperial Powerful sound,춘천미술관 전관,2022-08-19,2022-08-31,이승철 초대전 LegendLee Invitation Exhibit,(사)한국미술협회 춘천지부,033-241-1856,강원도 춘천시 서부대성로 71,37.88237413,127.731335
543,춘천여성미술작가회『만화방창』展,춘천미술관 1~2층 전관,2022-06-17,2022-06-22,만화방창이라는 주제로 만물이 소생하듯 여성작가의 고뇌와 변화하는 모습을 다양한 작업 영역에서 작가들의 조형언어로 현대미술의 웅지를 펼치고자 한다.,춘천여성미술작가회,,강원도 춘천시 서부대성로 71,37.88237413,127.731335
544,제2회 춘천 국제 어린이 그림 교류전,춘천미술관 전관,2022-05-27,2022-06-01,본 전시는 춘천시 해외교류도시와의 미술작품 교류를 통해 문화교류의 장을 만드는 전시,강원도 춘천시청,033-241-1856,강원도 춘천시 서부대성로 71,37.88237413,127.731335
547,Re Birth - 다시 삶으로,춘천미술관 1F,2022-04-15,2022-04-20,Re Birth - 다시 삶으로 홍연화 첫번째 개인전,홍연화,033-241-1856,강원도 춘천시 서부대성로 71,37.88237413,127.731335
1163,상설전 畵,춘천미술관 1F,2022-02-25,2022-03-23,"한국화, 문인화, 서예, 조소 작품 전시",춘천미술관,033-241-1856,강원도 춘천시 서부대성로 71,37.88237413,127.731335
731,2022 춘천연극제,봄내극장+카페38마일,2022-06-15,2022-10-29,산책길에서 관객과 함께 웃고 호흡하는 연극제,(사)춘천연극제+G1방송,033-256-8246,강원도 춘천시 서부대성로 71,37.88237413,127.731332
42,Creative energy_김정현 개인展,춘천미술관,2022-07-01,2022-07-06,김정현 개인전,김정현,033-241-1856,강원도 춘천시 서부대성로 71,37.88237413,127.73132
606,자연이 주는 선물_신동필 사진전,춘천미술관 제1 전시실,2022-06-24,2022-06-29,신동필 사진전,신동필,033-241-1856,강원도 춘천시 서부대성로 71,37.88237413,127.73132
648,하녀들,봄내극장,2022-09-19,2022-09-20,두 재매들의 비틀어진 욕망을 그린 공연,(사)한국예총강원도연합회,,강원도 춘천시 서부대성로 71 봄내극장,37.88245,127.73126
1142,2021조운플레잉 모두가어린이라면,춘천지하상가+춘천시청광장,2021-06-26,2021-06-27,"공연, 체험, 퍼레이드와 어린이플리마켓을 진행한다.",강원도 춘천시청,033-250-4938,강원도 춘천시 중앙로 51-2+강원도 춘천시 시청길11,37.881231,127.730012
525,한국관광공사 2021 공연관광 마케팅 아카데미_사전모집,온라인,2021-10-15,2022-01-14,한국관광공사 2021 공연관광 마케팅 아카데미_사전모집,한국관광공사,02-766-6791,강원도 춘천시 중앙로 16 무림빌딩,37.88342559,127.7299087
542,길창인 개인전 - 회귀,갤러리 상상언더,2022-07-16,2022-05-30,길창인 개인전 회귀’,길창인,,강원도 춘천시 금강로 86,37.87764946,127.72981
761,book book book 생각나누기 즐겁게 책읽기 특강 및 멘토링,춘천시청 민방위교육장,2022-04-16,2022-04-16,"즐겁게 책 읽기 활동아 참여할 아동,청소년,학부모 100명을 모집합니다",춘천시민언론협동조합 주간신문 춘천사람들,033-252-6217,강원도 춘천시 시청길 11 춘천시청,37.8813879,127.729799
213,공공미술렌탈프로젝트 춘천예술공감공공청사 미술 전시展,춘천시청 3~8층+춘천시의회 로비+춘천시립도서관 2층,2022-05-16,2022-12-16,춘천예술공감이라는 테마로 지역작가 작품 중 춘천의 이미지를 담은 작품을 44인의 작가에게 임대하여 전시한다,강원도 춘천시청,,강원도 춘천시 시청길 11,37.8813879,127.7297733
220,2022춘천막국수닭갈비축제,강원도 춘천시 일대,2022-08-30,2022-09-04,"춘천의 대표적인 축제인 춘천막국수닭갈비축제가 올해는 춘천 삼악산 호수케이블카 일원에서 8월30일부터~9월4일까지 6일간 진행이 된다. 3년만에 오프라인으로 찾아오는 이번 축제는 30일 KBS전국노래자랑을 시작으로 멀티미디어 드론쇼,인기가수 축하공연등 풍성한 볼거리와 춘천에서 즐기는 막국수, 닭갈비를 다양하게 선보이려고 한다.",춘천막국수닭갈비축제조직위원회,033-254-4347,강원도 춘천시 시청길 11 춘천시청,37.881339,127.7297733
910,춘천인형극제,춘천시 일대,2022-08-26,2022-09-04,1989년 시작되어 국내와 세계 각국의 인형극단이 참가하여 수준 높은 공연을 선보이는 국내 최대의 인형극축제,춘천인형극제+강원민방,033-242-8452,강원도 춘천시 시청길 11 춘천시청,37.881345,127.7297733
911,새명동 상권 축제 시청광장에 어린이들 모여라 어린이 행사 반짝 놀이터,춘천시청광장,2022-09-03,2022-09-03,다양한 컨텐츠 경험을 통해 새명동 상권을 방문 할 수 있는 발판을 마련하는 프로그램,강원도 춘천시청,033-250-4938,강원도 춘천시 시청길 11,37.8813879,127.7297733
1046,2022 보은대추축제,온라인축제,2022-10-14,2022-10-23,대추 및 농특산물 전시판매+랜선 콘서트+유튜브 홈쇼핑,보은군 축제추진위원회,043-540-3393,충청북도 보은군 보은읍 군청길 38,36.48970363,127.7297482
1260,속리산 신화여행축제,"속리산 잔디공원, 법주사 일원",2023-06-09,2023-06-11,천왕봉 산신제+영신행사+비빔밥 파티+팔상전탑돌이+민속경연대회 등,충청북도 보은군청,043-540-3372,충청북도 보은군 보은읍 군청길 38,36.48970363,127.7297482
1261,보은대추축제,뱃들공원 및 속리산 일원,2023-10-13,2023-10-22,예술공연+전국캠핑대회+피크닉존+버스킹공연+민속소싸움대회+속리산 단풍가요제 등,충청북도 보은군청,043-540-3392,충청북도 보은군 보은읍 군청길 38,36.48970363,127.7297482
323,그래미 수상자와 함께하는 춘천 10년의 문화동행 FESTA NYCC 2022,FESTA NYCC 유튜브(온라인),2022-11-21,2022-12-02,영원한 청년작가 김유정 문화의 나라 아일랜드를 만나다,문화게릴라 향+춘천문화재단,,강원도 춘천시 효자상길5번길 13,37.87261579,127.72938
127,제로섬씽,춘천문화예술회관 전시장,2022-09-29,2022-10-10,강원도를 터전으로 하는 작가 76인과 함께하는 에코아트페어 제로섬씽은 쓸모없는 아름다움’을 주제로 하고 있습니다,강원도민일보,,강원도 춘천시 효자상길5번길 13(효자동),37.87261579,127.7293405
136,Christmas Festival - 제 9회 정기연주회,춘천문화예술회관,2021-12-19,2021-12-19,한중미 예술인 협회의 성악가들 협연,퍼커션앙상블케이,,강원도 춘천시 효자상길5번길 13,37.87261579,127.7293405
137,음악극 피터와 동물의 사육제,춘천문화예술회관,2021-12-12,2021-12-12,피터가 동물들을 만나 늑대를 물리치러 가는 스토리,퍼커션앙상블케이,,강원도 춘천시 효자상길5번길 13,37.87261579,127.7293405
140,FESTA NYCC 2021 온라인 페스타 뉴욕 in 춘천,FESTA NYCC 유튜브(온라인),2021-12-13,2021-12-22,그래미 수상자와 함께하는 춘천 온라인 페스티,강원도 춘천시청+춘천문화재단,,강원도 춘천시 효자상길5번길 13,37.87261579,127.7293405
143,박양순 명창 판소리 흥보가 완창 공연,춘천문화예술회관,2021-10-26,2021-10-26,"강원도 최초의 판소리 완창으로 기록된 2012년 6월, 춘천 KBS 공개 홀 심청가 완창에 이어 9년 만에 선보이는 두 번째 완창",(사)한국전통판소리진흥회,,강원도 춘천시 효자상길5번길 13,37.87261579,127.7293405
214,제18회 강원아트페어 춘천전 자연에서 다시 태어나는 예술,춘천문화예술회관,2022-05-24,2022-05-29,아트페어는 자연에서 다시 태어나는 예술 이라는 주제로 전국 각지에서 참여하시는 18명의 다양한 작가님들의 참여로 진행,강원아트페어(GAF)운영위원회,033-241-1856,강원도 춘천시 효자상길5번길 13,37.87261579,127.7293405
530,뮤지컬 루나틱,춘천문화예술회관,2020-06-13,2020-06-13,뮤지컬 루나틱,춘천연극제+G1강원민방,033-256-8246,강원도 춘천시 효자상길5번길 13,37.87261579,127.7293405
644,소프라노 이효영 귀국 독창회,춘천문화예술회관,2022-10-18,2022-10-18,소프라노 이효영 귀국 독창회,이효영,,강원도 춘천시 효자상길5번길 13,37.87261579,127.7293405
695,Edu오케스트라 창단연주회,춘천문화예술회관,2022-12-04,2022-12-04,악기 연주를 열망하는 교직원들이 연주 기회를 갖고자 의기투합하여 2021년 12월에 첫 연습을 시작한 오케스트라,Edu오케스트라,,강원도 춘천시 효자상길5번길 13,37.87261579,127.7293405
703,제61회 춘천미술협회전 전통의 재해석춘천문화예술회관,춘천문화예술회관,2022-10-26,2020-11-02,"이번 협회전은 전통의 재해석이라는 주제를 가지고 기존의 틀과 형식,재료,소재,기법 등의 변화를 꾀하는 전시를 펼쳐보고자",주최(사)한국미술협회 춘천지부,033-241-1856,강원도 춘천시 효자상길5번길 13,37.87261579,127.7293405
843,강원도립무용단 창작무용극 강호,춘천문화예술관,2022-06-22,2022-06-22,백호-수호랑의 감춰진 이야기 창작무용극,강원도입무용단,033-251-4417,강원도 춘천시 효자상길 5번길 13,37.87261579,127.7293405
899,엘사의 생일파티,춘천문화예술회관 공연장,2022-11-19,2022-11-20,겨울왕국 ost뮤지컬,극단예일,02-555-0822,강원도 춘천시 효자상길5번길 13,37.87261579,127.7293405
913,제19회 춘천전국관악경연대회,춘천문화예술회관,2022-08-23,2022-08-25,제19회 춘천전국관악경연대회,춘천전국관악경연대회조직위원회,,강원도 춘천시 효자상길5번길 13,37.87261579,127.7293405
1143,책 보러 가지 않을래,춘천문화예술회관 전시장,2021-05-30,2021-05-30,"소양하다, 파피루스 ,서툰책방, 첫서재 공간의 주인장들의 감성이 스며있는 책들과 굿즈를 선보인다.",강원도청,,강원도 춘천시 효자상길5번길 13,37.87261579,127.7293405
1031,조운플레잉,춘천 지하상가,2022-02-10,2022-02-16,"초등학생 대상으로 하는 체험과 가족, 친구, 연인 등 그룹 체험",조운동 도시재생현장지원센터,033-250-4938,강원도 춘천시 중앙로 51-2,37.879128,127.728918
520,2021 상상언더 청소년 교육생 모집밴드 댄스,상상언더그라운드,2021-11-06,2021-12-11,조운동 도시재생현장지원센터에서 중앙로 상상언더그라운드의 청소년 시설을 이용하여 청소년 문화활동 및 여가활동을 도모하기 위해 맞춤 교육프로그램을 운영하고자 합니다.,조운동 도시재생현장지원센터,033-250-4937,강원도 춘천시 중앙로 38-5 다74-75,37.8830376,127.7283163
141,2021춘천마임축제 물화일체,약사천 수변공원,2021-11-10,2021-11-11,2021춘천마임축제 물화일체,춘천마임축제,033-242-0585,강원도 춘천시 약사고개길 53(효자동),37.87443892,127.7279424
625,어린이 창작무용극 갓깨비,축제극장몸짓,2022-07-17,2022-07-17,어린이들을 위한 창작 무용극,춤추다 추임,,강원도 춘천시 춘천로 112,37.87309537,127.727858
730,2022 춘천공연예술제,축제극장몸짓+춘천인형극장+담작은도서관,2022-08-09,2022-08-20,무대 위 펼쳐지는 공연예술 축체,사단법인 텐스푼,033-251-0545,강원도 춘천시 춘천로 112,37.87309537,127.727858
207,춘천마임축제 걷다 보는 마임,효자교~공지교,2021-04-21,2021-06-23,"일시적, 일회적 축제방식이 아닌, 소소하더라도 시민들과 깊이 있는 교감을 이뤄낼 수 있는 다양하고 지속적인 콘텐츠로 웃음을 선사하는 축제이다.",춘천마임축제,033-242-0582,강원도 춘천시 춘천로 112 축제극장몸짓,37.873089,127.727845
208,춘천마임축제 대학로 문화의 거리,강원대학교 후문거리 일대,2021-04-26,2021-05-08,"거리의 공간을 이용한 축제로, 거리전시와 중고장터, 데일리 체험프로그램을 진행한다.",춘천마임축제,033-242-0582,강원도 춘천시 춘천로 112 축제극장몸짓,37.873089,127.727845
1144,춘천마임축제 봄시즌,춘천시내 다수지역,2021-05-23,2021-05-29,2021년 우리의 잃어버린 봄을 찾기위한 무언의 몸짓으로 시민과 예술가의 봄을 찾는 공연,(사)춘천마임축제+KBS방송총국+춘천MBC,033-242-0585,강원도 춘천시 춘천로 112 축제극장몸짓,37.873089,127.727845
259,춘천마임축제,명동+ 공지천 의암공원+삼악산 케이블카 임시주차장,2022-05-22,2022-05-29,Rock&Rock 공연+극장공연+불의도시 도깨비난장,(사)춘천마임축제,033-242-0585,강원도 춘천시 춘천로 112,37.873097,127.727838
434,마임프린지,축제극장몸짓,2022-03-03,2022-03-05,신진예술가들의 자유로운 창작 공연,춘천마임축제,033-244-7556,강원도 춘천시 춘천로 112,37.873069,127.727824
478,연극 통일 익스프레스,축제극장 몸짓,2020-02-29,2020-02-29,연극 통일 익스프레스,한국문화예술위원회,033-251-9363,강원도 춘천시 춘천로 112,37.873069,127.727824
528,달콤한 잠A Sweet Slumber,축제극장 몸짓,2020-07-17,2020-07-18,"달콤한 잠은 기억, 정육면체, 그리고 달콤한 잠. 이 세 작품을 통해 현대인들이 받아들이는 변형된 기억의 조각, 스스로를 옭아매는 마음, 그리고 또 다른 마음들의 움직임을 언어, 소리의 충돌",프로젝트 시공간,,강원도 춘천시 춘천로 112,37.873069,127.727824
1108,마임프린지 시민 심사단 모집,축제극장몸짓,2022-03-03,2022-03-05,신진예술가들의 자유로운 창작 공연,춘천마임축제,033-244-7556,강원도 춘천시 춘천로 112,37.873069,127.727824
224,墨-사람다움을 담다,갤러리 4층,2022-12-01,2022-12-22,사람다움이란 무엇인가사람다움이란 무엇인가사람다움이란 어디서 비롯되는가,안용선,,강원도 춘천시 서부대성로48번길 26-1(요선동),37.881034,127.7278146
145,음악으로 보는 이미지극 보이체크,축제극장 몸짓,2021-09-14,2021-09-15,사회의 부조리에 짓밟힌 소시민의 비극 스토리,극단 무소의 뿔,,강원도 춘천시 춘천로 112,37.87307,127.7278102
148,제2회 봄내 전국 시낭송대회,축제극장 몸짓,2020-11-16,2020-12-15,제2회 봄내 전국 시낭송대회,춘천문화재단+강원도민일보,033-260-9371,강원도 춘천시 춘천로 112,37.87307,127.7278102
642,The Frame,축제극장 몸짓,2022-10-15,2022-10-16,프레임을 부수고 정의할 수 없는 형태의 유기적인 인간이야말로 인간의 삶이라 볼 수 있다,남현우,,강원도 춘천시 춘천로 112,37.87307,127.7278102
646,창작국악뮤지컬 어라연 연가,축제극장 몸짓,2022-10-08,2022-10-08,강원도와 전국을 연결하던 핏줄 같은 강의 이야기,국악창작그룹 자락,033-251-6542,강원도 춘천시 춘천로 112,37.87307,127.7278102
650,송연교의 춤 카르마 業,축제극장 몸짓,2022-09-17,2022-09-17,"현 상황에서 지쳐있는 우리의 마음을 어루어만져주고 위로하여 주고 싶다. 예술이 할 수 있는 까다롭지만, 현재까지 이어지고 있는 현실적인 이미지를 표현한 공연",송연교,,강원도 춘천시 춘천로 112,37.87307,127.7278102
651,안형국 Dance Company 틀 무용 자유일기,축제극장 몸짓,2022-10-05,2022-10-05,자유일기는 난민들이 겪고 있는 아픔을 우리의 아픈 역사에 투명하게 비추어 무용의 시선으로 창작한 공연,Dance Company 틀,,강원도 춘천시 춘천로 112,37.87307,127.7278102
905,2022 차근차근 상영전,축제극장 몸짓,2022-10-21,2022-10-23,영화무료상영&벼룩시장&체험전,춘천지속가능발전협의회+평창국제평화영화제,033-243-4900,강원도 춘천시 춘천로 112,37.87307,127.7278102
223,2022 춘천 “별의 별Star & Star Folk concert,춘천 요선동 웰컴 도시센터 지하,2022-10-14,2022-10-22,춘천 포크락 페스티벌,(사)한국싱어송라이터협회 강원지부,033-911-6006,강원도 춘천시 서부대성로44번길 2,37.883149,127.727619
134,지나가는 여름이 아쉬운 사람들을 위한 블루요선 여행페스타,조운웰컴센터 및 요선동 일대,2022-08-20,2022-08-20,"지나가는 여름이 아쉬운 사람들을 위한 늦여름 바캉스,스몰여행 페스타",춘천시 도시재생과,033-250-4936,강원도 춘천시 서부대성로44번길 2,37.883138,127.727604
641,지유선 개인전 무지개 터널에서 만나,터무니창작소,2022-10-12,2022-10-18,무지개 터널에서 만나,예술밭사이로,,강원도 춘천시 약사고개길50번길 10-1,37.873522,127.726477
318,장혜란 개인전 - Back ground,터무니창작소,2022-12-01,2022-12-07,"법당 곳곳에 장식된 무늬들을 탐구하듯 구경하며 한참을 돌아다니다,어쩌면 그때 매료되었던 것",장혜란,,강원도 춘천시 약사고개길50번길 10-1,37.873506,127.72644
135,축성탄 저세상 텐션으로의 초대 안녕 팥쥐,강원도립극단 유튜브,2021-12-24,2021-12-26,"안녕,팥쥐 온라인 상영회",강원도립극단,033-255-0496,강원도 춘천시 안마산로 89 4층,37.85546242,127.7258527
515,2021 강원도민 연극교실 금쪽같은 우리엄빠 참여자 모집,강원도립극단 연습실,2021-12-04,2021-12-05,2021 강원도민 연극교실 금쪽같은 우리엄빠 참여자 모집,강원도립극단,033-255-0496,강원도 춘천시 안마산로 89 4층,37.85546242,127.7258527
527,2021 강원도립극단 배우술훈련,강원도립극단,2021-09-27,2021-10-07,2021 강원도립극단 배우술훈련,강원도립극단,033-255-0496,강원도 춘천시 안마산로 89 4층,37.85546242,127.7258527
605,강원도립극단 우리가족 본격 소통 공감 연극 놀이터 금쪽같은 우리 엄빠,강원도립극단 연습실,2022-07-23,2022-07-31,가족을 주제로 참여자 모두가 역할을 갖고 가족과 함께 공감할 수 있는 이야기를 나누는 참여형 프로그램,강원도립극단,033-255-0496,강원도 춘천시 안마산로 89 4층,37.85546242,127.7258527
403,2022 마임아카데미 몸짓워크숍,외일드 스튜디오+공지교~효자교 사이 산책로,2022-07-04,2022-07-28,아티스트에게 다양한 몸짓을 배우고 무대에서 공연까지 해보는 참여형 프로그램,춘천마임축제,033-244-7556,강원도 춘천시 후석로186번길 22 지하 1층,37.867857,127.725594
126,2022 마임 아카데미 움직임 창작자를 위한 워크숍 비행飛行,무하 공연예술연습실,2022-11-07,2022-11-21,"자신의 상태,창작물의 완성도를 한 단계 확신에 가까운 상태로 이끌 수 있는 계기를 만들기 위한 시간",강원도청+강원도 춘천시청,033-244-7556,강원도 춘천시 행촌로 35(퇴계동),37.85984082,127.724394
524,홍라무와 함께하는 몸시 워크샵,무하 공연예술연습공간,2021-10-17,2021-10-17,홍라무와 함께하는 몸시 워크샵,안현옥 몸맘창작소+사회적협동조합 무하,,강원도 춘천시 행촌로 35(퇴계동),37.85984082,127.724394
210,2020 역발상전,문화공간역,2022-03-04,2022-03-24,"춘천 외 활동작가 5인 춘천 활동작가 5인이 참여하는 전시이다. 2021역발상전은 서울, 경기권을 기반으로 작업하는 작가들이 함께 참여 하였고 2022 역발상전은 충청도권을 기반으로 작업하는 작가들이 함께 참여한다. 역발상전 교류 초대 작가는 대한민국의 국공립미술관 초대작가로 활동하는 인지도 높은 작가들이 대상이며 대한민국의 미술의 위상을 춘천에 소개하고 춘천 활동 작가들의 춘천외부 활동의 기회를 마련하는 것에 일조하기 위해 기획된 전시이다. 춘천 외 활동작가 5인 춘천 활동작가 5인이 참여하는 전시이다. 2021역발상전은 서울, 경기권을 기반으로 작업하는 작가들이 함께 참여 하였고 2022 역발상전은 충청도권을 기반으로 작업하는 작가들이 함께 참여한다. 역발상전 교류 초대 작가는 대한민국의 국공립미술관 초대작가로 활동하는 인지도 높은 작가들이 대상이며 대한민국의 미술의 위상을 춘천에 소개하고 춘천 활동 작가들의 춘천외부 활동의 기회를 마련하는 것에 일조하기 위해 기획된 전시이다.",강원도 춘천시청,033-252-0731,강원도 춘천시 영서로 2260,37.86404439,127.7239152
326,삶의 순환,문화공간역,2022-11-11,2022-11-16,달리세윤 개인전,달리세윤 개인전,,강원도 춘천시 영서로 2260 1층 문화공간역,37.864029,127.7239152
328,윤명식 개인전,문화공간 역,2022-11-25,2022-11-30,윤명식 개인전,윤명식,033-252-0731,강원도 춘천시 영서로 2260 1층 문화공간역,37.864029,127.7239152
532,2022링크전-○△□,문화공간역,2022-09-16,2022-09-29,링크전은 소통과 연결을 화두로 삼아 해마다 주제를 달리하여 개최하는 전시,춘천문화재단,033-252-0731,강원도 춘천시 영서로 2260,37.86404439,127.7239152
541,유관선 사진전- 해빙,문화공간 역,2022-06-03,2022-06-09,2년간의 조사와 촬영시기를 체크하고 2주간의 변화되는 형상을 표현,유관선,,강원도 춘천시 영서로 2260,37.86404439,127.7239152
694,강선주 개인전 정원도감-치유의 정원 으로의 초대,문화공간 역,2022-11-18,2022-11-24,"한국인의 정원에서 볼 수 있는 꽃과 나무, 그 속에 깃든 새와 곤충들을 그려 보았다. 또한 우리 민족의DNA에 녹아든 우리만의 소박한 성정을 표현",강선주,,강원도 춘천시 영서로 2260 1층 문화공간역,37.864029,127.7239152
483,강원문화재단요선시장 코로나땡 동그랑땡,춘천 요선시장,2020-09-21,2020-09-24,강원문화재단 요선시장 코로나땡 동그랑땡,강원문화재단,033-240-1347,강원도 춘천시 금강로 11 KT춘천지사 2층,37.882424,127.723891
1313,천령문화제,함양상림공원일원,2023-05-05,2023-05-09,고유제+축하공연+버스킹공연+학술대회+야간 빛축제+문화예술단체 전시,경상남도 함양군,055-960-4510,경상남도 함양군 함양읍 교산리 1047-2,35.52372642,127.7218597
481,2020춘천조각공공미술심포지엄,꿈자람 물정원,2020-10-05,2020-10-25,2020춘천조각(공공미술)심포지엄,춘천조각심포지엄 조직위원회,,강원도 춘천시 소양로 77,37.880714,127.720707
516,2021 정책아카데미 청년정책기획자 양성 과정 참여자 모집 안내,강원도 청소년수련원,2021-11-20,2021-11-21,2021 정책아카데미 청년정책기획자 양성 과정 참여자 모집 안내,춘천시 청년청,033-910-3120,강원도 춘천시 신샘밭로 89 강원도청소년수련원,37.92294014,127.7206389
209,제33회 춘천인형극제 국내 참가작 공모,춘천인형극장 및 춘천시 일대,2021-02-22,2021-03-21,1989년 9월 처음 개최하여 33회를 맞이하는 아시아 최대 인형극축제 춘천인형극제이다.,춘천인형극제,033-242-8452,강원도 춘천시 영서로 3017,37.92101625,127.720197
518,재춘천인형극제_2021 콘텐츠 창의인재 동반 사업_공연예술의 저작권관련법,춘천인형극장,2021-11-04,2021-11-04,공연예술의 저작권관련법,한국콘텐츠진흥원,033-242-8452,강원도 춘천시 영서로 3017,37.92101625,127.720197
526,통합문화예술교육프로그램 나와 만나는 예술 속 몸 짓 손 짓,춘천인형극장,2021-09-16,2021-10-28,"통합문화예술교육프로그램 나와 만나는 예술 속 몸 짓, 손 짓",문화체육관광부+강원도,070-4633-5807,강원도 춘천시 영서로 3017,37.92101625,127.720197
1145,춘천인형극제 코코바우 놀이터 자연아 놀러와,춘천인형극장,2021-04-24,2021-07-24,"자연의 흐름을 주제로 모두 함께 인형극, 만들기를 즐기며 자연을 느낄 수 있다.",춘천인형극제,033-242-8452,강원도 춘천시 영서로 3017,37.92101625,127.720197
119,춘천인형극박물관 재개관 전시 인형의 기술,춘천인형극박물관,2020-10-15,2020-12-31,인형의 기술,(재) 춘천인형극제+(사)유니마코리아,033-242-8452,강원도 춘천시 영서로 3017,37.92101625,127.720178
639,제34회 춘천인형극제 코코바우 스테이지 12월 기획공연,춘천인형극제,2022-12-07,2022-12-17,"손톱달, 돌연한 출발, 보통인간 공연",춘천인형극제,033-242-8452,강원도 춘천시 영서로 3017 춘천인형극장,37.921529,127.720178
640,강원도립극단 뮤지컬 무궁화 꽃이 피었습니다,춘천인형극장,2022-11-01,2022-11-01,"당연하게 생각해왔지만 사실은 잘 알지 못했던 무궁화 이야기, 그 이야기를 시작해본다",강원도립극단,033-255-0496,강원도 춘천시 영서로 3017 춘천인형극장,37.921529,127.720178
643,해를 낚은 할아버지,춘천인형극제,2022-10-13,2022-10-23,우연히 낚아버린 해를 돌려놓기 위한 할아버지의 노력의 관한 인형공연,예술경영지원센터,033-242-8452,강원도 춘천시 영서로 3017 춘천인형극장,37.921529,127.720178
653,종합예술극 라임의 왕 김삿갓,춘천인형극장,2022-09-17,2022-09-18,"우리가 몰랐던 치명적 매력남 김삿갓의 이야기가 유쾌.통쾌하게 펼쳐지고, 그의 놀라운 시조는 힙합, EDM, 국악블루스 곡으로 새롭게 변신한 공연",(사)문화강대국,033-253-5058,강원도 춘천시 영서로 3017 춘천인형극장,37.921529,127.720178
898,강원도립극단 기획공연 뮤지컬 무궁화 꽃이 피었습니다,춘천인형극장,2022-09-21,2022-09-22,"당연하게 생각해왔지만 사실은 잘 알지 못했던 무궁화 이야기, 그 이야기를 시작해본다",강원도립극단,033-255-0496,강원도 춘천시 영서로 3017 춘천인형극장,37.921529,127.720178
319,화이트릭스마스2 산타피습사건,춘천인형극장,2022-12-03,2022-12-03,기존 마술쇼의 형식에서 벗어나 마술과 극이 융합된 가족용 마술극,(사)문화강대국,033-253-5058,강원도 춘천시 영서로 3017 춘천인형극장,37.92101625,127.7201045
626,2022 실레페스트Sille Fest 강원 국제 아마추어 연극제,아트팩토리봄,2022-06-24,2022-06-26,"아마추어 연극인들의 무대,다채로운 연극제",(사)문화프로덕션도모+세계아마추어연극협회 한국센터,033-263-7222,강원도 춘천시 신동면 풍류1길 34,37.81797,127.719774
609,연극 소낙비처우,아트팩토리 봄,2022-08-09,2022-08-21,"김유정 프로젝트의 두번째 공연, 소낙비 처우(凄雨)",사단법인문화프로덕션도모,033-263-7222,강원도 춘천시 신동면 풍류1길 34,37.817974,127.719769
340,2022 대한민국 소극장 열전 in 춘천,아트팩토리 봄,2022-07-03,2022-07-03,2022 대한민국 소극장 열전 in 춘천’ 대구 한울림 팀의 못생긴 남자’ 공연,대한민국소극장열전,033-263-7222,강원도 춘천시 신동면 풍류1길 34,37.81795,127.719716
607,가정식 백반 맛있게 먹는 법,아트팩토리 봄,2022-06-28,2022-06-29,"(사)문화프로덕션도모의 초연작, 가정식 백반 맛있게 먹는 법 도모만의 색깔로 재해석한 농도깊은 2인극",사단법인문화프로덕션도모,033-263-7222,강원도 춘천시 신동면 풍류1길 34,37.81795,127.719716
645,연극 금따는 콩밭,아트팩토리 봄,2022-10-14,2022-11-06,금따는 콩밭,사단법인문화프로덕션도모,033-263-7222,강원도 춘천시 신동면 풍류1길 34,37.817982,127.7197078
699,2022 작은 무대에 부는 바람 in 춘천,아트팩토리 봄,2022-11-12,2022-12-07,작은 무대에 부는 바람 공연,예술경영지원센터,033-263-7222,강원도 춘천시 신동면 풍류1길 34,37.817982,127.7197078
758,음악극 동백꽃,아트팩토리 봄,2022-04-22,2022-05-15,온 가족이 즐길 수 있는 음악극 동백꽃,(사)문화프로덕션도모,033-263-7222,강원도 춘천시 신동면 풍류1길 34,37.817929,127.7197078
517,창조성워크샵 creativity,안현옥 몸맘창작소,2021-11-07,2021-11-07,창조성워크샵(creativity),안현옥 몸맘창작소,,강원도 춘천시 영서로 2299,37.865771,127.719531
628,still a cat,복합문화공간 파피루스,2022-06-08,2022-06-30,이수현 작가와 홍현지 작가의 길고양이 보호 및 구조를 지지하기 위한 고양이’ 전시,파피루스,,강원도 춘천시 안마산로 21,37.858745,127.71921
150,김유정 83주기 추모공연 김유정을 연주하다 그 삶의 이중주,김유정문학촌 생가 마당,2020-05-23,2020-05-23,김유정 83주기 추모공연,김유정문학촌,033-261-4650,강원도 춘천시 신동면 실레길 25,37.819151,127.7186675
116,춘천낭만여행 - 풍물장 새봄맞이 신명굿,풍물시장 상설무대,2020-05-17,2020-07-12,풍물장 새봄맞이 신명굿,춘천뒤뚜루농악보존회,,강원도 춘천시 영서로 2352-21 풍물시장,37.867938,127.716982
149,춘천 핸드크래프트 프리마켓 어뮤즈데이,근화동396 청년창업지원센터,2020-05-30,2020-05-30,춘천 로컬 마켓인 라온마켓과 2019년 10월 공지천 사거리 철도 밑 근화동에 자리잡은 P6춘천이 준비한 프리마켓,강원도 춘천시청,033-256-3962,강원도 춘천시 중앙로 186,37.87434326,127.7145571
218,춘천 핸드메이드 브랜드와 함께 하는 마켓396 5월,근화동396 청년창업공간,2022-05-28,2022-05-18,오랜만에 근화동396 청년창업공간에서 핸드메이드 마켓396이 열립니다 힘든 시기 속에서도 찾아와주시는 방문객 여러분들의 안전을 생각하며 지난 해 총 세 번의 무인형식의 행사를 무사히 마치고 드디어 더욱 발전된 모습으로 올해 첫 마켓396을 선보이고자 합니다,근화동396 청년창업지원센터,033-256-3961,강원도 춘천시 중앙로 186,37.87434326,127.7145571
222,마켓396 10월HALLOWEEN MARKET,근화동396 청년창업공간 일대,2022-10-29,2022-10-29,지역 내 핸드메이드&일러스트 기반 청년창작자의 창업활동 기반을 조성하고 시민들의 창작 경험 확대를 지원하기 위해 설립,근화동396 청년창업지원센터,033-256-3961,강원도 춘천시 중앙로 186(근화동),37.87434326,127.7145571
763,마켓396,근화동396 청년창업공간,2021-06-26,2021-06-26,멈춰있는 핸드메이드 마켓의 활기를 돋우는 문화 축제,근화동396 청년지원센터,033-256-3961,강원도 춘천시 중앙로 186,37.87434326,127.7145571
842,마켓396 6월X 커넥티드스몰마켓 in chuncheon,근화동 396 청년창업공간 일대,2022-06-25,2022-06-25,춘천의 핸드메이드 브랜드와 특별손님 커넥티드 북스토어,근화동396 청년창업지원센터,033-256-3961,강원도 춘천시 중앙로 186,37.87434326,127.7145571
912,마켓396 8월NIGHT MARKET,근화동396 청년창업공간 일대,2022-08-27,2022-08-27,지역 내 핸드메이드&일러스트 기반 청년창작자의 창업활동 기반을 조성하고 시민들의 창작 경험 확대를 지원하기 위해 설립된 마켓,주최근화동396 청년창업지원센터,033-256-3961,강원도 춘천시 중앙로 186,37.87434326,127.7145571
144,2021 춘천 한국지역도서전,공지천 조각공원 일대,2021-10-08,2021-10-10,2021 춘천 한국지역도서전,강원도 춘천시청+한국지역출판연대,033-250-3114,강원도 춘천시 옛경춘로 880,37.87324516,127.7126624
829,얼음나라화천 산천어축제,강원도 화천군 화천읍 화천천일원,2022-01-27,2022-02-16,"얼음낚시, 맨손잡기, 눈얼음체험, 얼음조각광장 등",강원도 화천군청,1688-3005,강원도 화천군 화천읍 산천어길 137,38.112578,127.709826
1139,2017 얼음나라화천 산천어축제,강원도 화천군 화천읍 화천천일원,2017-01-14,2016-02-05,"얼음낚시, 맨손잡기, 눈얼음체험, 얼음조각광장 등",강원도 화천군청,1688-3005,강원도 화천군 화천읍 산천어길 137,38.112578,127.709826
529,2020 강원민족예술한마당 끽해야 한판,춘천 공지천 의암공원 일원,2020-06-12,2020-06-13,"코로나19의 빠른 종식과 강원도민의 건강과 안녕을 기원하는 한마당, 우리 안의 신명으로 분단을 극복하고 평화통일의 시대를 염원하는 한마당",(사)강원민예총,033-252-8907,강원도 춘천시 수변공원길 18,37.87454686,127.7061971
900,강원예총 60주년 문화예술대축제 공감음악회,춘천 공지천 야외공연장,2022-08-27,2022-08-27,문화예술대출제 공감 음악회,사)한국예총강원도연합회,033-254-2252,강원도 춘천시 수변공원길 18,37.87454686,127.7061971
903,춘천 라틴 뮤직 페스타 춤 추어라 호반아,공지천 야외공연장,2022-08-20,2022-08-20,호반과 공연의 도시 춘천에서 라틴을 만나다. 오는 8월 20일 토요일 오후 19시 춘천 공지천 야외공연장에서 춘천 라틴 페스타 춤 추어라 호반아’ 공연,춘천민예총 실용음악협회,033-261-6282,강원도 춘천시 수변공원길 18,37.87454686,127.7061971
904,춘천리조이스힐링 페스티벌,공지천 야외 공연장,2022-08-14,2022-08-14,춘천리조이스힐링 페스티벌,(사)강원민예총 춘천지부,,강원도 춘천시 수변공원길 18,37.87454686,127.7061971
41,보이지 않아도 보이는,KT&G 상상마당 춘천 1전시실+KT&G 상상마당 춘천 2전시실,2022-07-13,2022-07-17,"전시장에서 작품을 관람하고자 할 때, 종종 만지지 마세요 눈으로만 보세요.’ 라는 글귀가 있다. 그러면 작품을 볼 수 없는 시작장애인에게 작품 감상은 불가능하다. 이번 전시는 장애인과 같이 문화적 소외자들에게도 작품 감상의 기회를 만들어 시각 예술 분야의 한계성을 극복해보고자 하는 전시이다.",강원문화재단+공공미터협동조합,,강원도 춘천시 스포츠타운길399번길 25 어린이회관,37.874066,127.702455
548,2022 KT&G 상상마당 춘천 아트갤러리 정기대관 공고,KT&G 상상마당 춘천 아트갤러리 1~2,2022-03-10,2022-03-25,춘천 아트갤러리 정기대관 공고,KT&G 상상마당 춘천,070-7586-0550,강원도 춘천시 스포츠타운길399번길 25 어린이회관,37.874066,127.702455
629,한선주展_Dearest Yoricke 친애하는 요릭에게,KT&G 상상마당+춘천 아트갤러리,2022-07-20,2022-07-31,"생명의 유한성, 유한의 슬픔이라는 테마 아래 기획한 전시이며, 죽음[요릭]과의 서신을 통해 밝혀지는 삶이라는 진리’에 관한 이야기다. 전시는 문학적 상상력 속에서 오브제와 회화작품의 병치로 연출되며, 1장 밤의 서신(lettre de la nuit)과 2장 새벽의 서신(lettre de l’aube)으로 나뉘어 각각 아트갤러리 1과 아트갤러리 2에서 진행된다.",한선주,070-7586-0550,강원도 춘천시 스포츠타운길399번길 25 어린이회관,37.874066,127.702455
147,춘천예술문화축제 한여름 밤의 아리아,상상마당 야외공연장,2021-08-07,2021-08-07,춘천예술문화축제  한여름 밤의 아리아,강원도 춘천시청+(사)강원민예총 춘천지부,033-251-8907,강원도 춘천시 스포츠타운길399번길 25 어린이회관,37.874122,127.702307
901,2022년 대한민국의 새로운 민요지형도 덩기두밥 프로젝트,KT&G 상상마당 춘천,2022-08-21,2022-08-21,"민요를 모티브로 한 국악과 재즈, 시각예술이 융합된 종합예술 프로젝트",예술경영지원센터,031-581-2813,강원도 춘천시 스포츠타운길399번길 25 어린이회관,37.874122,127.702307
908,2022 춘천 색소폰 페스티벌 & 춘천 아마추어 색소폰 경연대회,KT&G 춘천 상상 마당 일대,2022-10-01,2022-10-02,춘천 전국 아마추어 색소폰 경연대회,춘천 국제 색소폰 페스티벌 조직 위원회,,강원도 춘천시 스포츠타운길399번길 25 어린이회관,37.874122,127.702307
133,정춘일 개인전 - 삼 .철. 리 바람 展,kt&g 상상마당 춘천갤러리,2022-09-20,2022-10-21,"이번 프로젝트는 작가 본인에게는 자신의 한계성과의 싸움이며, 향유자에게는 작품의 다양성의 폭을 넓혀주고,나아가 문화도시 춘천의 위상과 예술의 질적수준을 높여 줄 것이라 기대한다.",정춘일,,강원도 춘천시 스포츠타운길 399번길 25,37.87361778,127.7020916
613,2022 춘천예술문화축제,KT&G 상상마당 야외공연장,2022-07-31,2022-07-31,국내외에서 활동하는 젊은 성악가들초청공연 한여름밤의 아리아,(사)강원민예총 춘천지부,033-251-8907,강원도 춘천시 스포츠타운길399번길 25,37.87361778,127.7020916
615,2022 춘천오페라페스티발 카르멘,KT&G 상상마당 춘천 야외무대,2022-07-29,2022-07-30,"우크라이나 하르키우 오페라극장 등 프랑스, 스페인 등 유럽에서 왕성하게 활동하던 중 전쟁으로 어려움을 겪다 딸과 어머니와 함께 체코에 난민 자격으로 체류 중인 내용",강원도청,,강원도 춘천시 스포츠타운길399번길 25,37.87361778,127.7020916
627,영서기획- Work&Art Balance,KT&G 상상마당 춘천 갤러리 1&2,2022-06-11,2022-06-26,미디어아트 기획전,유재균,,강원도 춘천시 스포츠타운길 399번길 25,37.87361778,127.7020916
693,김영경 개인전 사이의 공간,KT&G상상마당 춘천 아트갤러리,2022-11-16,2022-11-27,"김영경 개인전, 사이의 공간",김영경,,강원도 춘천시 스포츠타운길399번길 25,37.87361778,127.7020916
697,결 로 사진작가 이내 개인전,KT&G 상상마당 춘천,2022-11-09,2022-11-20,2018년부터 작업해 sns상에서만 공개되었던 작업들과 신작을 선보이는 개인전,스튜디오 이내,,강원도 춘천시 스포츠타운길399번길 25,37.87361778,127.7020916
700,김동일의 다큐멘터리 댄스 프로젝트 얼굴등등,상상마당 춘천 사운드홀 및 잔디마당,2022-11-11,2022-11-12,얼굴등등,김동일,,강원도 춘천시 스포츠타운길399번길 25,37.87361778,127.7020916
634,여수영취산진달래체험행사,영취산일원 및 흥국사 산림공원,2023-04-01,2023-04-02,산신제+진달래백일장+사생대회+체험행사,전라남도 여수시청,061-659-4744,전라남도 여수시 흥국사길 160,34.82281621,127.7016059
1284,백운산국사봉철쭉제,옥곡면 국사봉랜드,2023-04-01,2023-04-01,공연+경연+체험+전시+판매+부대행사,전라남도 광양시청,061-797-4233,전라남도 광양시 옥곡면 옥진로 665-1,34.98936299,127.7001825
1138,2017 물의나라화천 쪽배축제,강원도 화천군 화천읍 붕어섬일원,2017-07-29,2017-08-13,"물놀이장, 산천호경주대회, 창작쪽배콘테스트 등",강원도 화천군청,1688-3005,강원도 화천군 화천읍 강변로 2-54,38.1007316,127.6970642
121,2020 서현종 개인전 - 청.춘.천 展,복합문화공간 5Note,2020-06-12,2020-06-28,춘천이 가지고 온 풍경들과 그 속에서 자라온 우리들의 지나온 푸른색의 추억들을 아크릴화로 표현한 전시,서현종,,강원도 춘천시 스포츠타운길 347-9,37.872615,127.696757
1282,광양매화축제,다압면 섬진마을 일원,2023-03-10,2023-03-19,공연+경연+체험+전시+판매+부대행사,전라남도 광양시청,061-797-2721,전라남도 광양시 시청로 33,34.94063056,127.6959675
909,2022 춘천 반려동물 동행 페스티벌,춘천 송암스포츠타운 보조경기장,2022-10-01,2022-10-02,춘천 송암스포츠 타운 보조경기장에서 반려동물과 함께 즐기는 신나고 다양한 체험 프로그램과 토크콘서트,강원도 춘천시청,033-250-3114,강원도 춘천시 스포츠타운길 136,37.85524611,127.6932591
545,애니메이션박물관 제17회 기획전 세상을 바꾼 불꽃 태일이,애니메이션박물관 2층 기획전시실,2022-05-03,2023-04-16,한국 노동현대사를 대표하는 전태일이 2021년 12월 장편 애니메이션으로 탄생했다.,(재)강원정보문화산업진흥원,033-245-6470,강원도 춘천시 서면 박사로 854 애니메이션박물관,37.892994,127.691958
128,마스터클래스 23회차 영혼의 기타리스트 이근형 vs 괴물연주자 베이시스트 장태웅,강원음악창작소 1층 아니마떼끄,2022-09-24,2022-09-24,"일렉트릭 기타의 모든것에 대한 토론, 베이시스트의 다양한 테크닉과 앙상블의 이해",문화체육관광부+한국콘텐츠진흥원+춘천시+강원정보문화진흥원,033-245-6321,강원도 춘천시 서면 박사로 854,37.89302024,127.6919244
325,도보여행 서숙희이효숙최선아이현정최유선최덕화LUCY,갤러리툰,2022-11-08,2022-11-20,"도보 여행자가 가는 길은 되돌아가는 길, 근원으로 가는 길,인간의 삶의 시원으로 가는 길이다.",도보여행,033-245-6483,강원도 춘천시 서면 박사로854,37.89302024,127.6919244
616,2022 강원콘텐츠코리아랩 창작공모전,온라인,2022-04-14,2022-05-15,"강원도민, 강원도 소재 재학생 및 직장인",강원콘텐츠코리아랩,033-245-6994,강원도 춘천시 서면 박사로 854,37.89302024,127.6919244
647,마스터클래스 23회차 영혼의 기타리스트 이근형 vs 괴물연주자 베이시스트 장태웅,강원음악창작소 1층 아니마떼끄,2022-09-24,2022-09-24,알렉트릭 기타의 모든것에 대한 토론&베이시스트의 다양한 테크닉과 앙상블의 이해,문화체육관광부+한국콘텐츠 진흥원+춘천시+강원정보문화진흥원,033-245-6321,강원도 춘천시 서면 박사로 854,37.89302024,127.6919244
1267,음성품바축제,음성설성공원,2023-05-17,2023-05-21,전국 품바 길놀이 퍼레이드 글로벌 품바 래퍼 경연대회 품바뮤지컬 품바왕 선발대회 등,음성군축제추진위원회,043-871-3402,충청북도 음성군 음성읍 설성공원길 28,36.93278892,127.6910199
178,음성품바축제,설성공원 일원,2022-09-21,2022-09-25,전국 품바 길놀이 퍼레이드 글로벌 품바 래퍼 경연대회 품바뮤지컬 품바왕 선발대회 등,충청북도 음성군청 축제추진위원회,043-871-3402,충청북도 음성군 음성읍 설성공원길 28,36.9327833,127.691003
1316,제42회설성문화제,설성공원일원,2023-10-12,2023-10-15,"민속예술한마당놀이, 군민노래자랑 등 각종 체험",음성군 축제추진 위원회,043-872-4084,충청북도 음성군 음성읍 수정로 38,36.93427623,127.6906949
1315,제24회음성품바축제,설성공원및꽃동네일원,2023-05-17,2023-05-21,"글로벌품바래퍼경연대회, 품바라이브 등 공연 및 체험",음성군 축제추진 위원회,043-873-2241,충청북도 음성군 음성읍 예술로 102,36.93152313,127.6806296
924,제24회 양평단월고로쇠축제,단월레포츠공원,2023-03-18,2023-03-19,물맑은 양평의 청정지역에서만 나오는 소리산 고로쇠 수액으로 매년 3월에 개최되는 축제,단월고뢰쇠축제추진위원회,031-770-3192,경기도 양평군 단월면 보룡길 53,37.53855944,127.672992
182,청년거리문화축제,여수시 일원,2023-04-01,2023-12-31,거리공연+프리마켓 등,전라남도 여수시청,061-659-4745,전라남도 여수시 시청로 1,34.76014841,127.661568
632,제27회 무주반딧불축제,무주군 일원,2023-09-02,2023-09-10,환경탐사+체험 판매 등 상설행사+문화예술행사,전라북도 무주군청,063-320-2537,전라북도 무주군 무주읍 한풍루로 326-14,36.00262216,127.6614905
181,여수동동북축제,용기공원 및 선소일원,2023-10-21,2023-10-22,북퍼레이드+아티스트공연+북전시및체험행사+경연대회,전라남도 여수시청,061-659-4743,전라남도 여수시 소호로 606,34.75590207,127.6572796
934,제21회 옥천묘목축제,옥천묘?漬貶? 일원,2023-03-31,2023-04-02,묘목판매+묘목 나눠주기 등,충청북도 옥천군청·옥천이원묘목영농조합법인,043-730-3593,충청북도 옥천군 이원면 이원로 830,36.24660998,127.6268656
1283,광양천년동백축제,옥룡면 동백림 일원,2023-03-25,2023-03-26,공연+경연+체험+전시+판매+부대행사,전라남도 광양시청,061-797-2603,전라남도 광양시 옥룡면 신재로 624,35.01695051,127.6192703
931,세종대왕과 초정약수 축제,내수초정문화공원,2022-10-07,2022-10-09,초정약수 관련,충청북도 청주시청,043-201-1793,충청북도 청주시 청원구 내수읍 초정약수로 851,36.721607,127.601269
1169,증평들노래축제,증평민속체험박물관,2022-10-22,2022-10-23,"핵심프로그램(장뜰두레농요 시연)+전통 농경문화를 테마로 한 공연, 전시·체험프로그램 운영+체험행사(고구마캐기·논놀이·농경체험·오감체험 등)+전시행사(사진전시·국화전시 등)",증평들노래축제추진위원회,043-835-4143,충청북도 증평군 증평읍 둔덕길 89,36.7638867,127.5955697
927,제13회 양평 용문산 산나물축제,용문역 앞,2023-05-05,2023-05-07,"산나물의 맛과 향기를 느낄수 있는 신나는 공연, 즐거운 체험과 전+산나물 요리 등 다채로운 축제",용문면산나물축제추진위원회,031-770-3332,경기도 양평군 용문면 용문역길 21,37.48245012,127.5945009
1264,증평인삼골축제,보강천미루나무숲 일원,2023-10-01,2023-10-01,홍삼포크삼겹살대잔치+인맥파티+장뜰두레농요시연+인삼골장사씨름대회 등,증평문화원,043-835-4112,충청북도 증평군 증평읍 문화로 7,36.78038628,127.5885595
241,제44회 지리산피아골단풍축제,토지면 피아골 일원,2020-10-31,2020-11-01,"○ 대표프로그램 : 단풍제례○ 체험프로그램 : 황금단풍잎을 찾아라, 족욕체험○ 농특산품 판매, 향토음식점, 군홍보관 운영 등",구례군,061-780-2255,전라남도 구례군 토지면 직전길 35,35.26629179,127.5830587
559,제36회 지용제,지용생가 및 상계체육공원 등 구읍 일원,2023-09-07,2022-09-10,지용문학상 시상식+시노래콘서트+향수콘서트+지용백일장 등,충청북도 옥천군청·옥천문화원,043-730-3403,충청북도 옥천군 옥천읍 매동로 209,36.31880041,127.5827071
161,지용제,지용생가 등 구읍 일원,2022-09-22,2022-09-25,지용문학상 시상식 및 정지용 음악회 전국시조경창대회 정지용시 낭송대회 등,충청북도 옥천군청,043-730-3403,충청북도 옥천군 옥천읍 향수길 56,36.3149382,127.581608
1237,지리산 뱀사골 고로쇠 약수제,남원시 산내면 부운리 반선주차장,2022-02-14,2022-03-31,고로쇠 홍보 및 판매+기념식 등,전라북도 남원시 산내면,063-620-4705,전라북도 남원시 산내면 지리산로 842-8,35.3769935,127.581604
1287,광양숯불구이축제,광양읍 서천변 일원,2023-10-01,2023-10-01,공연+경연+체험+전시+판매+부대행사,전라남도 광양시청,061-797-4903,전라남도 광양시 광양읍 남등길 6,34.9733415,127.5810489
1242,지리산 뱀사골 단풍제,산내면 부운리 지리산국립공원,2022-10-22,2022-10-22,개막식+천년송소원빌기+뱀사골와운단풍길트레킹+각종 체험 및 농특산품 판매장 운영 등,전라북도 남원시 산내면,063-620-4705,전라북도 남원시 산내면 와운길 10,35.37179767,127.5791353
611,Connect musical,엘리시안 강촌 그랜드볼룸,2022-07-30,2022-08-06,"지구를 구해줘-분리수거편, 삼양동화",GS건설+엘리시안 강촌,02-2154-8412,강원도 춘천시 남산면 북한강변길 688,37.83001982,127.5786232
1240,봉화산 철쭉제,남원시 아영면 봉화산 일원,2022-04-23,2022-04-23,봉화산 철쭉 테마공연 등,전라북도 남원시 아영면,063-620-4084,전라북도 남원시 아영면 봉화산로 봉화산주차장,35.52409108,127.576659
558,제15회 향수옥천 포도·복숭아 축제,옥천공설운동장 일원,2023-07-28,2022-07-30,개막 축하음악회+농·특산물 판매장 등,충청북도 옥천군청,043-730-3262,충청북도 옥천군 옥천읍 관성로 53,36.30307359,127.5758071
1153,제13회 진안고원 수박축제,동향면 체련공원 일원,2023-07-29,2023-07-30,수박왕 선발대회+수박판매 등,전라북도 진안군,063-430-2393,전라북도 진안군 동향면 진성로 1687,35.84147374,127.5747111
1089,증평인삼골축제,증평보강천체육공원,2022-10-06,2022-10-09,"핵심프로그램(인삼캐기체험·홍삼포크삼겹살대잔치)+인삼, 홍삼포크를 테마로 한 공연·전시·체험프로그램 운영+개막 공연 및 문화공연(열린콘서트·인삼골합창제·인삼골군악콘서트)+경연행사(국제청소년페스티벌·인삼장사씨름대회·인삼골가요제·증평인삼어린이사생대회·백곡김득신백일장)+기타 전시·체험행사·참여행사 등",증평인삼골축제추진위원회,043-835-3977,충청북도 증평군 증평읍 송산리 217,36.78615603,127.5746346
1262,지용제,지용생가 등 구읍 일원,2023-09-07,2023-09-10,지용문학상 시상식+정지용 음악회 전국시조경창대회+정지용시 낭송대회 등,"충청북도 옥천군청, 옥천문화원",043-733-5588,충청북도 옥천군 옥천읍 관성로 35,36.3020368,127.5731251
935,제13회 옥천참옻축제,옥천향수공원 일원,2023-04-29,2023-04-30,옻순판매+옻음식경연대회+공연 등,충청북도 옥천군청,043-730-3594,충청북도 옥천군 옥천읍 중앙로 131,36.30827363,127.5729751
926,제13회 양평 용문산 산나물축제,용문산관광지일대,2023-04-28,2023-04-30,"산나물의 맛과 향기를 느낄수 있는 신나는 공연, 즐거운 체험과 전+산나물 요리 등 다채로운 축제",경기도 양평군청,031-770-1072,경기도 양평군 용문면 용문산로 782,37.55023222,127.5704646
636,여수여자만갯벌노을체험행사,소라면 해넘이길 일원(사곡),2023-09-16,2023-09-17,대나무망둥어낚시+개매기+바지락캐기+맨손고기잡이+가족사랑걷기체험+노을가요제,전라남도 여수시청,061-659-4744,전라남도 여수시 소라면 서부로 785-24,34.7902433,127.5679754
1236,지리산 바래봉 눈꽃축제,지리산허브밸리 일원,2022-12-25,2023-02-12,눈꽃 겨울 캠핑체험+농특산품 홍보 등,전라북도 남원시 운봉읍,063-635-0301,전라북도 남원시 운봉읍 바래봉길 214,35.43509151,127.5486169
1239,지리산 바래봉 철쭉제,지리산허브밸리 일원,2023-04-22,2023-05-21,산신제+바래봉 철쭉+지역 농특산품 홍보 등,전라북도 남원시 운봉읍,063-635-0301,전라북도 남원시 운봉읍 바래봉길 214,35.43509151,127.5486169
925,제20회 양평 산수유 한우 축제,개군레포츠공원,2023-04-01,2023-04-02,노랑 산수유 꽃이 필 4월 주읍리 등 마을길을 걷고 개군한우를 먹으며 즐길수 있는 축제,양평산수유축제추진위원회,031-770-3342,경기도 양평군 개군면 자진개1길 83,37.43277374,127.5313533
819,자라섬 국제재즈페스티벌,가평읍 읍내리 자라섬 일대,2023-10-07,2023-10-09,재즈공연+전시 및 체험+먹거리,(사)자라섬청소년재즈센터,031-581-2813,경기도 가평군 가평읍 자라섬로 60,37.8208975,127.5210451
932,고흥 우주항공 축제,"나로우주센터, 국립청소년우주센터 일원(2020~2021년 코로나19로 미실시)",2019-05-03,2019-05-05,"발사현장견학, 야외 우주과학체험",고흥군,061-830-5305,전라남도 고흥군 봉래면 하반로 490,34.45357843,127.5181524
415,장수 한우랑 사과랑 축제,전라북도 장수군 의암공원 및 누리파크 일원,2022-10-27,2022-10-30,대표프로그램 등 7개분야 70여개 프로그램,전라북도 장수군,063-350-2356,전라북도 장수군 장수읍 한누리로 393,35.6411154,127.5181094
4,금산인삼축제,금산인삼관 광장 및 인삼약초시장 일원,2022-09-30,2022-10-23,ㅇ인삼캐기 체험+인삼약초체험+생활건강 체험 등 건강 체험관 운영+국제인삼교역전+인삼생활관+축제 40주년 기념 금산인삼 시대별 콘텐츠 구성 응답하라 1981 등,충청남도 금산군,041-750-4144,충청남도 금산군 금산읍 인삼광장로 30,36.1000256,127.5007304
817,금산삼계탕축제,금산인삼관 광장 일원,2023-07-07,2023-07-09,ㅇ삼계탕 사연 공모+먹방 콘테스트+라이브 커머스+쉐프 요리쇼+삼계탕 요리경연대회+대형 가마솥 요리 시연+가족 단위 물놀이 행사 등,충청남도 금산군,041-750-2303,충청남도 금산군 금산읍 인삼광장로 30,36.1000256,127.5007304
1050,금산인삼축제,금산인삼관 광장 및 인삼약초시장 일원,2023-10-06,2023-10-15,ㅇ인삼캐기 체험+인삼약초체험+생활건강 체험 등 건강 체험관 운영+국제인삼교역전+인삼생활관+축제 40주년 기념 금산인삼 시대별 콘텐츠 구성 응답하라 1981 등,충청남도 금산군,041-750-2303,충청남도 금산군 금산읍 인삼광장로 30,36.1000256,127.5007304
578,제3회 대청호 벚꽃축제,대전광역시 동구 신상동 282번지 일원,2021-03-27,2021-04-18,벚꽃길 드라이브스루(벚꽃관람+랜선 트롯가요제+벚꽃길 체험영상),대전광역시 동구청,042-251-6686,대전광역시 동구 신상동 282,36.35359044,127.4980431
579,제4회 대청호 벚꽃축제,대전광역시 동구 신상동 282번지 일원,2022-04-08,2022-04-10,벚꽃 아트길+온라인 공연+경연대회,대전광역시 동구청,042-251-6686,대전광역시 동구 신상동 282,36.35359044,127.4980431
580,제5회 대청호 벚꽃축제,대전광역시 동구 신상동 282번지 일원,2023-04-07,2023-04-09,벚꽃콘서트+경연대회+푸드트럭+체험프로그램 등,대전광역시 동구청,042-251-6686,대전광역시 동구 신상동 282,36.35359044,127.4980431
745,제1회 대청호 벚꽃축제,대전광역시 동구 신상동 282번지 일원,2019-04-05,2019-04-07,벚꽃축제+벚꽃가요제+벚꽃길 걷기대회 등,대전광역시 동구청,042-251-6686,대전광역시 동구 신상동 282,36.35359044,127.4980431
746,제2회 대청호 벚꽃축제,대전광역시 동구 신상동 282번지 일원,2020-04-03,2020-04-12,벚꽃길 경관조명 설치+드라이브스루 벚꽃 구경,대전광역시 동구청,042-251-6686,대전광역시 동구 신상동 282,36.35359044,127.4980431
