,축제명,개최장소,축제시작일자,축제종료일자,축제내용,주최기관,전화번호,홈페이지주소,관련정보,소재지도로명주소,소재지지번주소,위도,경도
93,제13회 남한강축제,법천소공원,2023-07-29,2023-07-30,문화예술공연+노래자랑 등,남한강축제위원회,033-737-5630,,,강원도 원주시 부론면 앙암로 1234,강원도 원주시 법천리 1575-1,37.20602239,127.7482249
94,치악산찰옥수수축제,문막체육공원,2023-07-01,2023-07-01,지역 옥수수 판매 및 농특산물 직거래장터 운영 등,문막농업협동조합,033-737-1164,,,,강원도 원주시 문막읍 문막리 329-45,37.3087155,127.8115249
95,치악산복숭아축제,댄싱공연장 일원,2023-08-01,2023-08-01,지역 복숭아 판매+품평회+기타 등,치악산복숭아 원주시협의회,033-737-4131,,,강원도 원주시 단구로 170,강원도 원주시 명륜동 345,37.3364295,127.9462614
96,2023 원주 댄싱카니발,댄싱공연장 일원,2023-09-22,2023-09-24,댄싱경연+문화예술공연+각종 체험 등,강원도 원주시청,033-737-5123,,,강원도 원주시 단구로 170,강원도 원주시 명륜동 345,37.3364295,127.9462614
97,원주삼토페스티벌,종합운동장 일원,2023-09-14,2023-09-17,농촌문화체험+지역먹거리 판매 등,강원도 원주시청+원주시농업인단체연합회,033-737-4155,,,강원도 원주시 서원대로 311,강원도 원주시 명륜동 342,37.3368381,127.943687
98,치악산한우축제,댄싱공연장 주차장,2023-10-01,2023-10-01,지역 한우 판매 등,농업기술센터 축산과,033-737-4195,,,강원도 원주시 단구로 170,강원도 원주시 명륜동 345,37.3364295,127.9462614
99,원주 독서대전,시립중앙도서관,2023-10-01,2023-10-01,학술토론+전시체험 등,평생교육원 시립중앙 도서관,033-737-3817,,,강원도 원주시 단구로 170,강원도 원주시 명륜동 345,37.3364295,127.9462614
100,원주 평생학습 축제,원주문화원 일원,2023-10-06,2023-10-07,개막식+공연+전시+체험 등,원주시 평생교육원 학습관,033-737-3808,www.wonju.go.kr,,강원도 원주시 원일로 139,강원도 원주시 일산동 211,37.3515851,127.9467947
113,2023년 제15회 대한민국 청소년 트로트 가요제,스포츠파크 일원,2023-05-20,2023-05-20,청소년 트로트 가요제 결선,(사)한국예술문화단체총연합회 거창지회,055-943-0123,,,경상남도 거창군 거창읍 중앙로 103,경상남도 거창군 거창읍 상림리 64-1,35.68667584,127.9095332
114,계양산국악제,계산체육공원+계양문화회관,2023-04-21,2023-04-22,국악경연대회(예선 : 온라인심사+결선 : 대면심사)+축하·기획·특별공연(온오프병행),인천광역시 계양구청,032-450-5874,,,인천광역시 계양구 주부토로 570,,37.545044,126.728998
115,장미꽃 필(feel)무렵,이곡장미공원,2023-05-19,2023-05-21,움직이는 포토존 + 장미꽃 홍보단 + 장미 시화전 + 체험 프로그램 운영,(재)달서문화재단,053-584-9771,http://www.dscf.or.kr,,,대구광역시 달서구 이곡동 1306-6,35.85779894,128.5147832
180,구로G페스티벌,서울특별시 구로구 안양천,2023-10-06,2023-10-08,구민이 주체가 되어 자발적으로 참여하는 구로구민을 위한 비대면 축제,서울특별시 구로구청,02-860-2282,www.gfestival.co.kr,,서울특별시 구로구 가마산로 245,서울특별시 구로구 구로동 435,37.49551123,126.8882891
181,여수동동북축제,용기공원 및 선소일원,2023-10-21,2023-10-22,북퍼레이드+아티스트공연+북전시및체험행사+경연대회,전라남도 여수시청,061-659-4743,http://www.yeosu.go.kr/dongdong,,전라남도 여수시 소호로 606,전라남도 여수시 학동 201,34.75590207,127.6572796
182,청년거리문화축제,여수시 일원,2023-04-01,2023-12-31,거리공연+프리마켓 등,전라남도 여수시청,061-659-4745,,,전라남도 여수시 시청로 1,전라남도 여수시 학동 100,34.76014841,127.661568
184,연천구석기축제,연천전곡리유적,2023-05-04,2023-05-07,선사문화체험+전시+이벤트,경기도 연천군청,031-839-2378,https://www.yeoncheon.go.kr/festival/,,경기도 연천군 전곡읍 양연로 1510,경기도 연천군 전곡읍 전곡리 515,38.01564838,127.0614526
185,동해무릉제,동해웰빙레포츠타운,2023-09-22,2023-09-24,개막식+퍼레이드+공연행사+체험행사+동대항 민속경기+민속예술시연,강원특별자치도 동해시청,033-530-2111,,,강원특별자치도 동해시 덕골길 10,강원특별자치도 동해시 천곡동 363-1,37.51606095,129.1021986
186,천만송이 국화축제,중앙체육공원,2023-10-21,2023-10-30,국화축제,전라북도 익산시청,063-859-4977,https://www.iksan.go.kr/gukhwa/index.iksan,국화전시+국화우수작품전시+농산물판매장+체험장,전라북도 익산시 하나로 322,,35.94972951,126.9861274
187,삼강주막나루터축제,삼강문화단지,2023-09-29,2023-10-01,K-세일즈맨의 하루+보부상운동회,경상북도 예천군,054-650-6031,https://www.ycg.kr/open.content/samgang/,,경상북도 예천군 풍양면 삼강리길 33,경상북도 예천군 풍양면 삼강리 117-2,36.5638688,128.2992955
190,2023년 부처님 오신 날 연등축제,거창군청 앞 문화광장,2023-05-06,2023-05-27,부처님 오신 날 연등 점등식,(사)거창불교사암연합회,055-940-3413,,,경상남도 거창군 거창읍 중앙로 103,경상남도 거창군 거창읍 상림리 64-1,35.68667584,127.9095332
256,거문도백도은빛바다체험행사,삼산면 거문도 일원,2023-08-04,2022-08-05,길놀이+은빛가요제+맨손활어잡기+지인망끌기체험,전라남도 여수시청,061-659-4743,,,전라남도 여수시 삼산면 거문길 28-10,전라남도 여수시 삼산면 거문리 111-35,34.02575979,127.311945
257,여수밤바다 불꽃축제,이순신 광장 및 장군도 앞 해상,2023-10-28,2023-10-28,공연행사+불꽃쇼+불꽃사진콘테스트,전라남도 여수시청,061-659-4742,https://www.yeosu.go.kr/ysff,,,전라남도 여수시 중앙동 385-6,34.7388016,127.7366067
258,여수향일암일출기원한마당,돌산읍 임포마을 일원,2023-12-31,2024-01-01,재야의종타종식+일출기원제례+소망행사,전라남도 여수시청,061-659-4743,,,전라남도 여수시 향일암로 60 종무소,전라남도 여수시 돌산읍 율림리 산7,34.59379448,127.8029861
265,인천펜타포트 음악축제,송도달빛축제공원,2023-08-04,2023-08-06,국내·외 아티스트 콘서트,인천광역시청,,https://pentaport.co.kr/,,인천광역시 연수구 센트럴로 350,,0.0,0.0
266,인천생활문화축제,"내항1,8부두",2023-10-14,2023-10-14,생활문화동아리 공연·체험·전시,인천광역시청,,,,인천광역시 중구 내항로 67,,0.0,0.0
267,섬마을밴드 음악축제,"강화,옹진 일원",2023-05-01,2023-10-31,섬마을 음악동호회 공연,인천광역시청,,,,인천광역시 중구 제물량로 195,,0.0,0.0
268,동인천 낭만시장,동인천역 북광장,2023-11-04,2023-11-05,1970년대 번성했던 동인천의 재현 및 지역상인과 연계한 축제,인천광역시청,,http://www.romancemarket.co.kr/,,,인천광역시 동구 송현동(동인천역 북광장),0.0,0.0
269,제17회 영등포 여의도 봄꽃축제,여의서로 벚꽃길,2023-04-04,2023-04-09,"벚꽃축제, 공연/전시/체험, 아트/푸드마켓 등","영등포구청, 영등포문화재단",02-2670-3128,blossom.or.kr,,서울특별시 영등포구 의사당대로 1,서울특별시 영등포구 여의도동 1,37.5329136,126.9164036
270,제4회 연제고분판타지축제,온천천시민공원 및 연산동 고분군,2023-03-31,2023-04-02,역사문화행사,연제구축제추진위원회,051-665-4065,,,,부산광역시 연제구 거제동 1466-24,35.19588064,129.082826
271,2023 유성온천문화축제,온천로 일원,2023-05-12,2023-05-14,"온천수신제,체험부스운영,축하공연 등",대전광역시 유성구 문화관광과,042-611-2080,,,대전광역시 유성구 어은로 27,대전광역시 유성구 봉명동 496-39,0.0,0.0
273,현인가요제,송도해수욕장,2023-08-04,2023-08-06,개막행사+현인가요제 전야제+현인가요제 본선,(사)한국연예예술인협회,02-2655-3157,http://culture.bsseogu.go.kr,송도해수욕장+부산공동어시장+송도구름산책로+송도해상케이블카+용궁구름다리+암남공원,부산광역시 서구 송도해변로 100,부산광역시 서구 암남동 135-5,35.07682117,129.0180502
274,치악산왕발걸음축제,치악산 일원(구.드림랜드 주차장),2023-09-09,2023-09-09,걷기행사+작은음악회 등,치악산왕발걸음축제추진위원회,033-734-5966,,,강원도 원주시 소초면 평장동길 86-16,강원도 원주시 소초면 평장리 823-7,37.4186377,128.0031734
275,제25회 원주한지문화제,원주한지테마파크 일원,2023-05-05,2023-05-14,기획전시+온라인체험 등,한지개발원,033-734-4739,www.hanjipark.com,,강원도 원주시 한지공원길 151,강원도 원주시 무실동 16,37.3343755,127.9353957
276,제16회 용수골꽃양귀비축제,용수골꽃농장,2023-05-23,2023-06-11,꽃밭관람+포토존 이용+기념품 판매 등,용수골꽃양귀비축제추진위원회,033-764-4443,,,강원도 원주시 한지공원길 151,강원도 원주시 판부면 서곡리 1632-2,37.3343755,127.9353957
277,제21회 장미축제,장미공원,2023-05-30,2023-06-01,장미가요제 등,장미축제위원회,033-000-0000,,,강원도 원주시 장미공원길 67-16,강원도 원주시 단계동 853-3,37.34588179,127.9311849
281,용인어린이상상의숲 특별 행사 <상상해봄>(가칭),용인어린이상상의숲,2023-04-01,2023-04-01,새학기와 봄을 맞이하여 상상의 숲이 준비한 어린이들과 가족 대상의 특별 행사,용인문화재단,031-323-6346,www.yicf.or.kr,,경기도 용인시 처인구 동백죽전대로 61,경기도 용인시 처인구 삼가동 28-6,37.24962344,127.1651613
282,제20회 사상전통달집놀이,삼락생태공원,2023-02-05,2023-02-05,정월대보름행사,부산광역시 사상구청,051-310-4062,http://www.sasangculture.or.kr/,,부산광역시 사상구 낙동대로 1310번길 19(삼락동),,35.17701002,128.9776397
283,제20회 사상강변축제,삼락생태공원,2023-10-21,2023-10-22,사상강변축제,부산광역시 사상구청,051-310-4062,http://www.sasangculture.or.kr/,,부산광역시 사상구 낙동대로 1310번길 19(삼락동),,35.17701002,128.9776397
284,제18회 충청남도 국악제,아산시평생학습관,2023-07-23,2023-07-23,충청남도 내 국악협회 경연대회,(사)한국국악협회충남지회,041-835-7200,,,충청남도 아산시 남부로92,충청남도 아산시 용화동 423-6,36.77090939,126.9921619
285,제2회 아트밸리 아산 오페라 갈라콘서트,경찰인재개발원 차일혁홀,2023-12-16,2023-12-26,오페라 갈라콘서트,충청남도 아산시,041-1422-4200,,,충청남도 아산시 무궁화로111,충청남도 아산시 초사동407,36.74527663,126.9890582
286,아트밸리 아산 락 페스티벌,신정호야외음악당+수영장,2023-08-11,2023-08-13,인천 펜타포트 락페스티벌의 아티스트를 공유하여 아산에서 펼쳐지는 락페스티벌,충청남도 아산시,041-530-6672,,,충청남도 아산시 무궁화로111,충청남도 아산시 초사동407,36.74527663,126.9890582
287,아트밸리 아산 별빛음악제,신정호야외음악당,2023-08-14,2023-08-14,신정호에서 펼쳐지는 한여름밤의 ?L,충청남도 아산시,041-530-6672,,,충청남도 아산시 무궁화로111,충청남도 아산시 초사동407,36.74527663,126.9890582
288,제18회 파주개성인삼축제,임진각 광장,2023-10-21,2023-10-22,파주개성인삼 전시 및 판매+농특산물 홍보 및 판매+각종 공연 및 체험행사 등,경기도 파주시청,031-940-5282,http://tour.paju.go.kr,,경기도 파주시 문산읍 임진각로 177,경기도 파주시 문산읍 마정리 1325-1,37.88953876,126.7401859
289,제27회 파주장단콩축제,임진각 광장,2023-11-24,2023-11-26,파주장단콩 전시 및 판매+농특산물 홍보 및 판매+각종 공연 및 체험행사 등,경기도 파주시청,031-940-5282,http://tour.paju.go.kr,,경기도 파주시 문산읍 임진각로 177,경기도 파주시 문산읍 마정리 1325-1,37.88953876,126.7401859
290,제33회 율곡문화제,율곡이이유적지 등,2023-10-14,2023-10-15,추향제+방방례+유가행렬 등,경기도 파주시청,031-940-4351,http://tour.paju.go.kr,,경기도 파주시 법원읍 자운서원로 204,경기도 파주시 법원읍 동문리 17-4,37.866127,126.8709854
291,2023 운정호수공원불꽃축제,운정호수공원,2023-10-07,2023-10-07,불꽃쇼+빛 조형물 등,경기도 파주시청,031-940-4351,,,,경기도 파주시 와동동 1412,37.72338983,126.7563252
292,2023 양주 천만송이 천일홍 축제,나리농원 일원,2023-09-23,2023-09-24,전국 최대 규모의 천일홍 꽃밭 조성으로 도농체험 및 시민 힐링 공간 제공,경기도 양주시청,031-8082-5655,https://www.yangju.go.kr/festival/index.do,,경기도 양주시 광사로 131-66,경기도 양주시 광사동 731,37.785795,127.081833
293,제35회 고양행주문화제,행주산성 및 행주산성 역사공원,2023-05-19,2023-05-21,행주투석전+뮤지컬행주대첩+불꽃드론쇼+수상불꽃놀이+대첩마을 테마존+일로지움 전시 등,경기도 고양시청,031-960-9684,http://www.hjfestival.or.kr,,경기도 고양시 덕양구 행주로 15번길 89,경기도 고양시 덕양구 행주내동 산26-1,37.59610775,126.8287118
294,2023 고양호수예술축제,일산호수공원+일산문화광장+라페스타+웨스턴돔,2023-10-06,2023-10-09,국내외 거리예술공연 및 시민참여프로그램,경기도 고양시청,031-960-9684,http://www.gylaf.kr,,경기도 고양시 일산동구 호수로 595,경기도 고양시 일산동구 장항동 906,37.65384593,126.7687814
295,제5회 인제가을꽃축제,용대관광지 일원,2023-09-22,2023-10-22,가을꽃축제,인제군문화재단,1577-8924,https://www.inje.go.kr,https://www.inje.go.kr,,강원도 인제군 북면 용대리 1821-1 일원,37.99772638,128.098499
302,영산강 서창들녁 억새축제,영산강(극락교~서창교 3.5km)일원,2023-10-13,2023-10-22,공식행사+걷기행사+생태환경콘서트+억새생태포토존+체험행사 등,광주광역시 서구,062-350-4792,https://www.seogu.gwangju.kr/sgfesta/,,광주광역시 서구 서창둑길 377,광주광역시 서구 벽진동 505-1,35.13849306,126.8287574
303,양동통맥축제,양동전통시장 6번도로 일원,2023-04-07,2023-10-28,통닭판매부스+상설공연+버스킹무대 등,(재)광주경제고용진흥원,062-360-7683,,,광주광역시 서구 천변좌로 238,광주광역시 서구 양동 2-1,35.15390267,126.9025537
304,최계란 선생 대구아리랑제,불로봉무동 일원,2023-10-01,2023-10-01,공연+먹거리 부스 운영,불로봉무동 주민자치위원회,053-662-2172,,,대구광역시 동구 팔공로50길 66,,35.92195919,128.6501799
305,용암산성 옥샘문화재,불로천 다목적광장,2023-10-10,2023-10-10,옥천제+사생대회+끼페스티벌+문화행사,도평동주민자치위원회,053-662-3801,,,대구광역시 동구 팔공로24길 171,,35.9099747,128.6501287
306,구민화합 어울림한마당,율하체육공원,2023-10-15,2023-10-15,무대공연+체육행사,대구광역시 동구청,053-662-4073,,,대구광역시 동구 금호강변로 278,,35.85992537,128.6928379
307,생거진천 문화축제,충청북도 진천군 진천읍 백곡천 둔치 일원,2023-10-06,2023-10-08,문화예술공연+민속경기+군민가요제,진천문화원,043-539-3602,http://www.jincheon.go.kr,진천종박물관+진천군립판화미술관+포석 조명희문학관+길상사+농다리,충청북도 진천군 진천읍 백사천길 17,충청북도 진천군 진천읍 읍내리 209-9,36.86152209,127.4420392
308,농다리 축제,충청북도 진천군 문백면 농다리 일원,2023-05-26,2023-05-28,문화예술공연+견지 낚시 대회+관련 체험 프로그램,진천문화원,043-539-3602,http://www.jincheon.go.kr,진천종박물관+진천군립판화미술관+포석 조명희문학관+길상사+농다리,,충청북도 진천군 문백면 구곡리 601-32,36.8286135,127.4946879
309,휴애리 봄 수국축제,휴애리,2023-04-07,2023-06-14,2023 휴애리 봄 수국축제는 정성스럽게 키운 다양한 수국을 온실 수국정원 카페주변등 공원 곳곳에서 감상할 수 있어 제주도민과 상춘객에게 인기가 좋은 제주 대표 봄 축제가 될 것으로 전망된다.,휴애리자연생활공원,064-732-2114,www.hueree.com,,제주특별자치도 서귀포시 남원읍 신례동로 256,,33.3085451,126.6343808
339,응봉산 해맞이 축제,응봉산 팔각정,2023-01-01,2023-01-01,매년 새해를 맞이하여 구의 명소인 응봉산 팔각정에서 성동구의 발전과 구민건강을 기원하고 새로운 다짐과 희망을 나누는 행사,서울특별시 성동구청,02-2286-5202,,,,서울특별시 성동구 금호동4가 1540,37.54709188,127.0291913
341,2023 제25회 제주들불축제,새별오름 및 제주시 일원,2023-03-09,2023-03-12,희망을 품은 제주들불 세계를 밝히다,제주특별자치도 제주시,064-728-2752,https://www.jejusi.go.kr/buriburi/main.do,,제주특별자치도 제주시 애월읍 화전길 201,,33.3482653,126.3856578
342,전농로 왕벚꽃 축제,제주시 전농로 일대,2023-03-24,2023-03-26,4년 만에 도심 전농로에서 왕벚꽃 축제가 개최됩니다.,제주특별자치도 제주시,064-728-4524,,,제주특별자치도 제주시 전농로 40 삼도1동행정복지센터,,33.5041441,126.5173684
343,제5회 애월읍 왕벚꽃 축제,애월읍 장전리 왕벚꽃거리,2023-03-25,2023-03-26,제주의 왕벚꽃 명소에서 즐기는 축제,제주특별자치도 제주시 애월읍,064-728-8811,,,제주특별자치도 제주시 애월읍 장전로 106 장전리사무소,,33.4506034,126.3891021
344,서귀포 유채꽃 국제걷기대회,제주월드컵경기장 광장,2023-03-25,2023-03-26,세계인이 함께 걷는 제주의 봄,제주특별자치도 서귀포시,064-760-3320,www.jejusta.or.kr,,제주특별자치도 서귀포시 월드컵로 33,,33.24626,126.5092753
345,제27회 제주국제관광마라톤축제,구좌종합운동장,2023-05-21,2023-05-21,제주의 파란 바닷빛과 함께~ 천혜의 자연 에너지를 만끽할 수 있는 제주국제관광마라톤축제 아름다운 제주 바닷길을 함께 달려보자,제주특별자치도,064-741-8772,www.jejumarathon.com/,,제주특별자치도 제주시 구좌읍 김녕로 209,,33.55518546,126.762746
346,2023 서귀포 유채꽃축제,표선면 가시리 유채꽃 광장 일대,2023-03-31,2023-04-02,화사한 봄꽃들이 만발한 봄날 3~4월 경에 열리는 2023 서귀포 유채꽃축제,제주특별자치도 서귀포시,064-760-3942,https://www.seogwipo.go.kr/festivals/uchae/index.htm,,제주특별자치도 서귀포시 표선면 녹산로 381-15,,33.3830788,126.7362847
347,제12회 우도소라축제,천진항 및 우도면 일원,2023-04-14,2023-04-16,섬속의 섬 힐링 우도에서 모두가 소통하는 친환경 열린축제,제주특별자치도 제주시 우도면,064-728-4321,,,제주특별자치도 제주시 우도면 우도해안길 70,,33.4928045,126.9515414
348,한라산청정고사리축제,남원읍 한남리 산76-7 일원,2023-04-29,2023-04-30,축제로 즐기는 제주 고사리의 명성,제주특별자치도 서귀포시 남원읍,064-760-4182,www.jejugosari.net/,,제주특별자치도 서귀포시 남원읍 서성로 788,,33.3300573,126.6773386
349,가파도청보리축제,가파도 일원,2023-04-08,2023-04-16,가파도의 청보리는 국토 최남단의 땅끝에서 가장 먼저 전해오는 봄소식으로 3월 초부터 5월 초순까지 보리잎의 푸른 생명이 절정을 이루며 해마다 봄이 되면 18만여평의 청보리밭 위로 푸른 물결이 굽이치는 장관을 이룬다.,가파도청보리축제위원회,064-794-7130,http://wonderfulis.co.kr/,,제주특별자치도 서귀포시 대정읍 가파로 2,,33.1662259,126.2689356
350,강정마을 생태축제,서귀포시 강정동 강정천 일대,2023-05-05,2023-05-07,사시사철 맑은 물이 흐르는 강정천 일대에서 즐기는 다양한 생태체험과 캠핑경험,강정마을회,000-0000-0000,www.강정마을생태축제.com,,제주특별자치도 서귀포시 이어도로 668,,33.2337406,126.4875172
351,제주MBC 국제평화마라톤,한림종합운동장,2023-03-26,2023-03-26,새 봄과 함께 2023 제주MBC 국제평화마라톤 대회,제주문화방송,064-748-9021,http://marathon.jejumbc.com/index.php,,제주특별자치도 제주시 한림읍 한림중앙로 71-9,,33.40969184,126.2685441
352,2023 제주 고산리 유적 선사축제,제주 고산리 유적,2023-04-28,2023-04-30,제5회 GoGo 제주고산리유적 선사축제,제주특별자치도 세계유산본부,064-772-0041,https://jejugogohak.tistory.com/,,제주특별자치도 제주시 한경면 노을해안로 1100,,33.3041632,126.1661787
353,휴애리 유채꽃 축제,휴애리,2023-01-01,2023-03-31,2023 휴애리 유채꽃축제는 서귀포시 남원읍 신례리에 위치한 휴애리의 새로운 축제이다. 이번 휴애리 유채꽃축제에는 정성스럽게 키운 유채꽃 4000평 밭에서 직접 감상할 수 있다.,휴애리자연생활공원,064-732-2114,www.hueree.com,,제주특별자치도 서귀포시 남원읍 신례동로 256,,33.3085451,126.6343808
354,2023 안양충훈벚꽃축제,안양충훈2교일대,2023-04-08,2023-04-09,벚꽃콘서트+ 버스킹공연+ 벚꽃체험부스+ 푸드트럭&먹거리+ 벚꽃컬러링북+ SNS이벤트 등,안양시+안양충훈벚꽃축제추진위원회,031-687-0500,http://www.ayac.or.kr,안양예술공원+ APAP+ 김중업박물관,경기도 안양시 만안구 석수로 159,경기도 안양시 만안구 석수동 797,37.40461526,126.8961574
355,2023 관악어린이가족축제_관악봄봄,별빛내린천,2023-05-20,2023-05-20,공연_전시 및 체험 프로그램_플리마켓_부스 운영 등,서울특별시 관악구청+관악문화재단,02-828-5825,https://gfac.or.kr/,,서울특별시 관악구 신림로 3길 35,서울특별시 관악구 신림동 209-1,37.46759765,126.9448709
356,2023 GIG Festival,별빛내린천,2023-07-01,2023-07-02,모든 장르의 스트릿 댄스 배틀_댄스 워크숍_플리마켓_전시 등 다양한 스트릿 문화를 통해 청년뿐만 아니라 중장년층까지 모두가 댄서가 되어 즐길 수 있는 스트릿댄스 축제,서울특별시 관악구청,02-828-5764,https://gfac.or.kr/,,서울특별시 관악구 신림로 3길 35,서울특별시 관악구 신림동 209-1,37.46759765,126.9448709
357,2023 어린이동화페스티벌,관악문화재단 어린이라운지,2023-08-26,2023-08-26,소방관마술쇼_동화구연_인형극 등 다양한 어린이 전문 프로그램 운영,관악문화재단,02-828-5829,https://lib.gwanak.go.kr/,,서울특별시 관악구 신림로 3길 35,서울특별시 관악구 신림동 209-1,37.46759765,126.9448709
373,INK 콘서트,인천문학경기장 주경기장,2023-09-09,2023-09-09,국내 정상급 K-POP 아티스트의 온.오프라인 콘서트,인천광역시청,,,,인천광역시 미추홀구 매소홀로 618,,0.0,0.0
388,동래읍성역사축제,동래문화회관+읍성광장+온천장 일원,2023-10-13,2023-10-15,동래부사행차길놀이+동래성저전투재현 뮤지컬+동래세가닥줄다리기+동래장터 체험 등,부산광역시 동래구청,051-550-4094,https://www.dongnae.go.kr/festival/index.dongnae?contentsSid=169,,부산광역시 동래구 문화로 80(명륜동),부산광역시 동래구 명륜동 137,35.21195069,129.090546
389,영천보현산별빛축제,보현산천문과학관 일원,2023-10-07,2023-10-09,천문·우주·과학 관련 온오프라인 콘텐츠 운영+천문학 강의+스타파티+각종 참여 프로그램 등,영천보현산별빛축제위원회,054-330-6702,http://영천보현산별빛축제.com,보현산천문대,경상북도 영천시 화북면 별빛로 681-32,경상북도 영천시 화북면 정각리 689,36.1402561,128.9964736
393,2023 자유공원 벚꽃축제,자유공원,2023-04-08,2023-04-08,봄꽃음악회+먹거리장터 등,(재)인천중구문화재단,032-777-9113,http://www.ijcf.or.kr/,,인천광역시 중구 제물량로232번길 46,,0.0,0.0
394,2023 가족의 달 어린이축제,한중문화관+영종역사관,2023-05-06,2023-05-07,공연+전시+체험 프로그램 등,(재)인천중구문화재단,032-777-9113,http://www.ijcf.or.kr/,,인천광역시 중구 제물량로 238,,0.0,0.0
395,나비대축제,함평엑스포공원 및 함평읍시가지 제2무대 일원,2023-04-28,2023-05-07,"봄을 여는 소리, 함평나비대축제(부제 : 똑똑똑 나비야 일어나 봄이야)",전라남도 함평군+함평축제관광재단,061-320-2238,https://www.hpftf.or.kr/,"꽃+나비+곤충을 소재로 한 전시+문화+체험행사+나비+곤충을 소재로 각종 체험프로그램 운영, 친환경 농ㆍ수ㆍ축산물 및 우수 특산품 등 전시, 판매",전라남도 함평군 함평읍 곤재로 27,전라남도 함평군 함평읍 수호리 1153-1,35.05813923,126.5226056
407,여주도자기축제,여주 신륵사관광지 일원,2023-05-19,2023-05-29,"여주 도자기 전시 및 판매, 공연 등",경기도 여주시청,031-881-9693,www.yjcf.or.kr,신륵사 명성황후생가 영릉 황학산수목원 등,경기도 여주시 신륵사길 7,경기도 여주시 천송동 303-3,0.0,0.0
408,제21회어방축제,광안리해변일원,2023-05-12,2023-05-14,광안리어방축제,부산광역시 수영구청,051-610-4062,suyeong.go.kr/festival,,부산광역시 수영구 남천동로100,부산광역시 수영구 남천동148-15,35.14537016,129.1123694
452,제23회 서귀포 겨울바다 국제펭귄수영대회,중문색달해수욕장 (중문관광단지 내),2023-01-01,2023-01-01,2023 새로운 출발 새로운 다짐,제주특별자치도 서귀포시,064-739-7201,https://seogwipo.go.kr/festivals/penguinswimming/info/intro.htm,,,제주특별자치도 서귀포시 색달동 3304-1,33.24523114,126.4080834
455,2023 유성재즈 맥주페스타,유림공원 동편 잔디광장,2023-08-18,2023-08-20,"수제맥주 시음, 재즈뮤지션 공연, 피크닉존 구성 등",대전광역시 유성구 문화관광과,042-611-2080,,,대전광역시 유성구 어은로 22,대전광역시 유성구 봉명동 1013-1,0.0,0.0
456,2023 부소산 봄 나들이 축제,"관북리 유적, 부소산성 일원",2023-05-05,2023-05-07,공연·경연·체험+감성피크닉+경관조성 등,충청남도 부여군,041-830-2823,,,,충청남도 부여군 부여읍 구아리 46-5,36.28516562,126.910939
457,제21회 부여서동연꽃축제,서동공원(궁남지 일원),2023-07-13,2023-07-16,경관조성+공연·경연·체험 등,충청남도 부여군,041-830-2209,http://lotusfestival.kr/,,,충청남도 부여군 부여읍 동남리 117,36.2696766,126.912263
458,2023 백제문화제,"구드래, 신리, 관북리 유적 등 부여군 일원",2023-09-23,2023-10-09,제례·불전+퍼레이드+전시·체험+공연+경연 등,충청남도+충청남도 부여군+충청남도 공주시,041-830-2208,https://www.baekje.org/kor/,,충청남도 부여군 부여읍 백강로 135,충청남도 부여군 부여읍 구교리 15-3,36.28711682,126.9048787
459,탐라국 입춘굿,관덕정 일원,2023-02-02,2023-02-04,입춘굿+거리굿+춘경문굿+소원지 쓰기 등,제주특별자치도 제주시청 문화예술과,,,,제주특별자치도 제주시 관덕로 19,,0.0,0.0
473,제13회 성남 전국 사진촬영대회,촬영대회: 성남시청 광장 일원+전시: 성남아트리움 갤러리,2023-04-08,2023-06-30,사진촬영+전시,(사)한국예총 성남지회,031-753-1020,https://www.cas.or.kr,사진 촬영 및 작품전시,"경기도 성남시 수정구 수정로171번길 10, 성남아트리움 지하1층",경기도 성남시 수정구 태평동 3309,0.0,0.0
474,문화와 예술이 어울어지는 미니콘서트,성남시 일원,2023-04-08,2023-10-24,문화예술 공연을 접하기 어려운 시민들을 찾아가 콘서트 개최,(사)한국예총 성남지회,031-753-1020,https://www.cas.or.kr,2023. 4. 8. 부터 10.14. 까지 총 20회에 걸쳐 성남시 관내 공연,"경기도 성남시 수정구 수정로171번길 10, 성남아트리움 지하1층",경기도 성남시 수정구 태평동 3309,0.0,0.0
475,2023년 청계산 힐링 빛 축제,성남시 수정구 상적도 옛골마을 일대,2023-04-28,2023-04-28,조명을 활용한 힐링길 달빛정원+부대행사(이벤트)+먹거리+문화공연 등,청계산상권 상인회,,,,경기도 성남시 수정구 옛골로 18,,0.0,0.0
476,제17회 청계산 철쭉축제,성남시 수정구 상적동 270+271+281,2023-05-06,2023-05-06,성남시민의 화합을 위한 축제,청계산 철쭉축제 추진위원회,,,,경기도 성남시 수정구 청계산로4길 17-12,경기도 성남시 수정구 고등동 613-2,0.0,0.0
477,전통산사문화재,원효사 일원,2023-02-01,2023-12-31,원효사일대 체험 프로그램,문화재청+광주광역시 북구청+광주광역시,062-410-8369,,,광주광역시 북구 무등로 1514-35,광주광역시 북구 금곡동 846,35.14863464,126.985744
491,부산불꽃축제,광안리해변,2023-11-04,2023-11-04,해외초청 불꽃쇼+첨단멀티 불꽃쇼,부산광역시청,051-888-5222,http://www.bfo.or.kr/main/index.asp,광안대교,부산광역시 수영구 광안해변로 219,부산광역시 수영구 광안동 192-16,35.15377357,129.1185161
492,이천도자기축제,이천시 신둔면 예스파크,2023-04-26,2023-05-07,도자기전시+체험,경기도 이천시,031-636-2200,http://www.ceramic.or.kr,예스파크(이천도자예술마을) +사기막골도예촌+월전미술관+이천세라피아+이천시립박물관+미란다호텔스파+테르메덴,경기도 이천시 신둔면 도자예술로5번길 109,경기도 이천시 신둔면 고척리 599-6,37.29309775,127.385686
494,체험문화축제,예스파크,2023-04-08,2023-04-09,음식만들기+공예체험+스포츠 놀이체험,경기도 이천시,031-636-2723,http://www.2000green.com,예스파크+이천농촌나드리,경기도 이천시 신둔면 도자예술로5번길 109,경기도 이천시 신둔면 고척리 599-6,37.29309775,127.385686
502,예산황토사과축제,예산역전시장,2023-10-28,2023-10-29,예산황토사과의 우수성 홍보,예산능금농업협동조합,041-339-7317,http://yesan-apple.co.kr/,,충청남도 예산군 예산읍 역전로 61-4,,0.0,0.0
506,아트밸리 아산 제2회 공연예술제,신정호야외음악당,2023-05-21,2023-05-21,공연예술인 페스티벌,충청남도 아산시,041-530-6222,,,충청남도 아산시 신정로 616,충청남도 아산시 방축동 5,36.77152141,126.9839152
507,아트밸리 아산 제1회 국제민족무용대회,신정호 야외음악당,2023-09-09,2023-09-10,국제민족무용경연대회,충청남도 아산시,041-530-6222,,,충청남도 아산시 신정로 616,충청남도 아산시 방축동 5,36.77152141,126.9839152
508,아트밸리 아산 제5회 전국 주부가요제,신정호 야외음악당,2023-09-03,2023-09-03,전국주부가요제,충청남도 아산시,041-530-6222,,,충청남도 아산시 신정로 616,충청남도 아산시 방축동 5,36.77152141,126.9839152
509,아트밸리 아산 제1회 아산온천 벚꽃축제,아산온천 일원,2023-04-08,2023-04-08,지역예술단체 및 전문 예술가들의 공연 전시홍보·프로그램체험·먹거리 등 다양한 부스 운영,충청남도 아산시,041-540-2068,,,,충청남도 아산시 음봉면 신수리 292-6,36.853764,126.982333
510,설화예술제,신정호 야외음악당(또는 온양온천역),2023-10-01,2023-10-31,개폐막식 지역예술인창작발표 공연 및 전시,충청남도 아산시,041-540-2087,,,충청남도 아산시 신정로 616,충청남도 아산시 방축동 5,36.77152141,126.9839152
511,아트밸리 아산 제1회 외국인 K-트롯 가요제,신정호야외음악당,2023-09-02,2023-09-02,아산시의 많은 다문화가정과 외국인들의 화합의 장 마련,충청남도 아산시,041-530-6315,,,충청남도 아산시 신정로 616,충청남도 아산시 방축동 5,36.77152141,126.9839152
512,아트밸리 아산 재즈Festa,신정호야외음악당,2023-10-07,2023-10-09,아산에서 다양한 음악을 즐길 수 있는 브랜드 네이밍 및 아산시 홍보,충청남도 아산시,041-530-6315,,,충청남도 아산시 신정로 616,충청남도 아산시 방축동 5,36.77152141,126.9839152
513,뮤지컬 순회공연(영웅),신정호야외음악당,2023-08-15,2023-08-15,유명 뮤지컬을 아산에서 시연함으로써 외부 관람객 유치를 통해 아산시 홍보 및 지역경제 활성화 도모,충청남도 아산시,041-530-6315,,,충청남도 아산시 신정로 616,충청남도 아산시 방축동 5,36.77152141,126.9839152
558,제15회 향수옥천 포도·복숭아 축제,옥천공설운동장 일원,2023-07-28,2022-07-30,개막 축하음악회+농·특산물 판매장 등,충청북도 옥천군청,043-730-3262,,,충청북도 옥천군 옥천읍 관성로 53,충청북도 옥천군 옥천읍 문정리 390,36.30307359,127.5758071
559,제36회 지용제,지용생가 및 상계체육공원 등 구읍 일원,2023-09-07,2022-09-10,지용문학상 시상식+시노래콘서트+향수콘서트+지용백일장 등,충청북도 옥천군청·옥천문화원,043-730-3403,,,충청북도 옥천군 옥천읍 매동로 209,충청북도 옥천군 옥천읍 상계리 14-2,36.31880041,127.5827071
560,예산장터삼국축제,예산전통시장내 백종원거리 일원,2023-10-13,2023-10-19,"예산의 국화, 국밥, 국수의 맛과 멋을 찾아 예산장터로 떠나는 가을여행축제",충청남도 예산군청,041-339-7317,https://yesansamguk.kr/,,충청남도 예산군 예산읍 천변로 160,충청남도 예산군 예산읍 대회리 233-4,36.67611933,126.8479256
561,의좋은형제축제,의좋은 형제공원 일원,2023-11-04,2023-11-05,예산의 실존인물인 이성만·이순형제와 함께 떠나는 가족여행,대흥현보존회,041-339-7317,https://gbfesta.kr/,,충청남도 예산군 대흥면 의좋은형제길 3,충청남도 예산군 대흥면 상중리 274-1,36.60652823,126.7921951
562,윤봉길평화축제,예산군 덕산면 충의사,2023-04-29,2023-04-30,"윤봉길의사의 상해의거 기념행사, 전시·체험행사, 온라인이벤트",(사)매헌윤봉길월진회,041-339-7317,http://www.ybgfestival.net/,,,충청남도 예산군 덕산면 시량리 산40-1,0.0,0.0
563,제24회 용전들노래 정기공연,용전동 용전마을 일원,2023-07-01,2023-07-31,용전들노래재현+체험마당 공연 등,광주광역시 북구청,062-410-8369,https://bukgu.gwangju.kr/board.es?mid=a10201110000&bid=0315,,광주광역시 북구 용전마을길 42(용전동),광주광역시 북구 용전동 171-3,35.23893658,126.8973084
564,왕버들기원제,충효동 일원,2023-11-16,2023-11-16,왕버들기원제,광주광역시 북구청,062-410-6616,https://bukgu.gwangju.kr/board.es?mid=a10201110000&bid=0315,,,광주광역시 북구 충효동 911,35.18482092,127.000917
565,생생문화재,충효동 일원,2023-03-01,2023-12-31,지역문화재활용 체험프로그램(김덕령장군),문화재청+광주광역시 북구청+광주광역시,062-410-8369,http://www.munhwahouse.or.kr/bbs/board.php?bo_table=bch_program&sca=생생문화재,,,광주광역시 북구 충효동 911,35.18482092,127.000917
576,부산시민의종 타종식,용두산공원,2023-12-31,2024-01-01,시민의종 타종+문화공연,부산광역시청,051-888-5224,http://www.bfo.or.kr/main/index.asp,용두산공원,부산광역시 중구 용두산길 37-55(광복동2가),부산광역시 중구 동광동2가 17-6,35.10093242,129.0324385
577,부산국제록페스티벌,삼락생태공원,2023-10-07,2023-10-08,록밴드 초청공연 등,부산광역시청,051-888-5221,http://www.bfo.or.kr/main/index.asp,삼락생태공원,부산광역시 사상구 낙동대로 1231,부산광역시 사상구 삼락동 617-3,35.17001086,128.9765693
580,제5회 대청호 벚꽃축제,대전광역시 동구 신상동 282번지 일원,2023-04-07,2023-04-09,벚꽃콘서트+경연대회+푸드트럭+체험프로그램 등,대전광역시 동구청,042-251-6686,https://www.donggu.go.kr/dg/tour/contents/988,,,대전광역시 동구 신상동 282,36.35359044,127.4980431
581,구시청나이트페스티벌,아시아음식문화지구,2023-07-14,2023-07-15,아시아+음식+문화를 주제로 한 상설축제 4회 개최,광주광역시 동구,062-608-2413,,,광주광역시 동구 서남로 1(동구청),광주광역시 동구 서석동 31,35.1461414,126.9230951
582,구시청나이트페스티벌,아시아음식문화지구,2023-09-22,2023-09-23,아시아+음식+문화를 주제로 한 상설축제 4회 개최,광주광역시 동구,062-608-2413,,,광주광역시 동구 서남로 1(동구청),광주광역시 동구 서석동 31,35.1461414,126.9230951
583,2023 광주문화재야행,재명석등+광주읍성유허 등,2023-06-16,2023-06-17,문화재를 활용한 야간문화 향유 프로그램 운영,광주광역시 동구,062-608-2403,http://www.gjnight.com,,광주광역시 동구 서남로 1(동구청),광주광역시 동구 서석동 31,35.1461414,126.9230951
584,제20회 광주 추억의 충장축제,5.18민주광장 및 국립아시아문화전당+충장로+금남로+예술의 거리 등 광주 일원,2023-10-05,2023-10-09,공식행사+퍼레이드+전시+공연+체험+국제교류행사 등,광주광역시 동구,062-608-4673,http://www.donggu.kr/index.es?sid=c8,,광주광역시 동구 서남로 1(동구청),광주광역시 동구 서석동 31,35.1461414,126.9230951
597,울산대공원 장미축제,울산대공원 장미원,2023-05-24,2023-05-28,대한민국 최고의 장미원에서 펼쳐지는 울산대공원 장미축제,SK이노베이션,052-229-3341,http://ulsanrosefestival.com,,,울산광역시 남구 옥동 산138,35.52889099,129.2881058
630,제5회 진안고원 가족공동체 김장문화축제,진안고원시장,2023-11-18,2023-11-19,우리집 김치담그기+사랑의 김장나눔 등,전라북도 진안군,063-430-2393,https://www.jinan.go.kr/festival/,,전라북도 진안군 진안읍 시장길 8-17,전라북도 진안군 진안읍 군상리 406-8,35.79268309,127.4284281
632,제27회 무주반딧불축제,무주군 일원,2023-09-02,2023-09-10,환경탐사+체험 판매 등 상설행사+문화예술행사,전라북도 무주군청,063-320-2537,http://firefly.or.kr/index2.sgk,반디랜드+태권도원+한풍루,전라북도 무주군 무주읍 한풍루로 326-14,전라북도 무주군 무주읍 당산리 1118,36.00262216,127.6614905
633,2023 대구앞산축제(제28회 대덕제),남구구민체육광장,2023-05-05,2023-05-06,앞산을 배경으로 다양한 체험프로그램과 문화예술 공연이 있는 주민화합 축제,대구광역시 남구,053-664-3262,,,대구광역시 남구 고산4길 71,대구광역시 남구 봉덕동 1272-1,35.83229037,128.6004362
634,여수영취산진달래체험행사,영취산일원 및 흥국사 산림공원,2023-04-01,2023-04-02,산신제+진달래백일장+사생대회+체험행사,전라남도 여수시청,061-659-4744,http://yeosujindalrae.co.kr/,,전라남도 여수시 흥국사길 160,전라남도 여수시 중흥동 17,34.82281621,127.7016059
635,여수거북선축제,이순신광장 및 선소일원,2023-05-04,2023-05-07,통제영길놀이+개막행사+각종체험공연행사,전라남도 여수시청,061-659-4743,www.jinnamje.com,,전라남도 여수시 이순신광장로 95,전라남도 여수시 중앙동 385-6번지 등,34.73922445,127.7365808
636,여수여자만갯벌노을체험행사,소라면 해넘이길 일원(사곡),2023-09-16,2023-09-17,대나무망둥어낚시+개매기+바지락캐기+맨손고기잡이+가족사랑걷기체험+노을가요제,전라남도 여수시청,061-659-4744,,,전라남도 여수시 소라면 서부로 785-24,,34.7902433,127.5679754
649,대관령눈꽃축제,대관령면 횡계리 송천일원,2023-01-13,2023-01-22,눈조각전시+눈썰매체험,강원도 평창군청,033-335-3995,http://www.snowfestival.net,,강원도 평창군 대관령면 사부랑길224-2,강원도 평창군 대관령면 횡계리 661,37.70493356,128.7017723
663,제20회 강북구 3·1독립운동 기념행사,서울특별시 강북구 우이동 봉황각 및 만남의 광장,2023-03-01,2023-03-01,"기념식, 공연 및 체험 프로그램",서울특별시 강북구청,02-901-6203,www.gangbuk.go.kr,,서울특별시 강북구 삼양로173길 107-12,서울특별시 강북구 우이동 254,37.66019851,127.0060603
664,4.19혁명 국민문화제,서울특별시 강북구 국립4.19 민주묘지 및 강북구 일원,2023-04-08,2023-04-19,4.19혁명 기념+국민문화제,4.19 3개단체+서울특별시 강북구청,02-901-6205,www.festival419.org/,,서울특별시 강북구 도봉로89길 13,서울특별시 강북구 수유동 192-59,37.63918553,127.0254518
665,종교연합바자회,서울특별시 강북구 한신대신학대학원,2023-10-07,2023-10-07,종교연합 바자회 기증물품 판매+문화공연 수익금전액 난치병어린이돕기 후원,서울특별시 강북구 관내 3종교연합,02-901-6204,www.gangbuk.go.kr,,서울특별시 강북구 인수봉로 159,서울특별시 강북구 수유동 498-16,37.6350142,127.0129382
667,낙동강유채꽃축제,대저생태공원,2023-04-08,2023-04-16,축제취소,부산광역시청,051-888-5221,http://www.bfo.or.kr/main/index.asp,대저생태공원,부산광역시 강서구 공항로 1246(대저1동),부산광역시 강서구 대저1동 2314-11,35.20985086,128.9845591
668,부산원도심골목길축제,동구+영도구(예정),2023-05-20,2023-05-21,테마별 체험 프로그램 등,부산광역시청,051-888-5221,http://www.bfo.or.kr/main/index.asp,"원도심(동구, 영도구) 일원",부산광역시 중구 중구로 120(대청동1가),부산광역시 중구 대청동1가 1-4,35.10619736,129.0323514
732,선사문화체험축제,한샘청동공원,2023-05-12,2023-05-13,선사테마축제 및 체험프로그램 운영 등,달서구문화원,053-667-2194,http://artko16.netto.kr/,,,대구광역시 달서구 대천동 353-5,35.81951349,128.5187423
733,동대문구 봄꽃축제,중랑천 제1체육공원 및 장안벚꽃로,2023-04-01,2023-04-02,봄철 동대문구의 대표적인 축제+축하공연+체험프로그램,서울특별시 동대문구청,02-2127-4711,,,서울시 동대문구 천호대로 145,,0.0,0.0
734,제6회의성슈퍼푸드마늘축제,의성종합운동장+읍내 시가지 일원 및 남대천,2023-10-06,2023-10-08,의성 특산물 마늘을 활용한 요리대회+마늘주제관 등 다채로운 프로그램 운영,의성군축제추진위원회,054-830-6578,http://www.garlicfestival.co.kr,,경상북도 의성군 의성읍 군청길 31,경상북도 의성군 의성읍 후죽리 509-2,36.35290408,128.6972464
735,제1회남대천벚꽃축제,남대천일원,2023-04-08,2023-04-09,버스킹+플리마켓 중심의 벚꽃축제,경상북도 의성군청,054-830-6578,,,,경상북도 의성군 의성읍 후죽리 774-18,36.34921729,128.6915824
736,봉래산발복기원제,봉래산 헬기장,2023-06-11,2023-06-11,개회식+기원제+길놀이+의식공연+음복례 등,봉래산발복기원제추진위원회,051-419-5722,http://www.yeongdo.go.kr/main.web,,부산광역시 영도구 벚꽃길 1,부산광역시 영도구 청학동 산54-4,35.08646003,129.0590783
737,영도다리축제,아미르공원+영도일원+영도다리축제유튜브채널,2023-10-13,2023-10-15,개막주제공연+축하공연+불꽃쇼+퍼레이드+체험행사 등,부산광역시 영도구청,051-419-4064,http://www.yeongdo.go.kr/ydfestival.web,,부산광역시 영도구 해양로 301번길 55,부산광역시 영도구 동삼동 1165,35.07714964,129.0820078
738,영도커피페스티벌,아미르공원,2023-11-03,2023-11-05,개막주제공연+축하공연+체험행사 등,부산광역시 영도구청,051-419-6332,https://www.yeongdo.go.kr/yd_coffee_festival.web,,부산광역시 영도구 해양로 301번길 55,부산광역시 영도구 동삼동 1165,35.07714964,129.0820078
739,2023 정조대왕 능행차 공동재현,서울 창덕궁~수원화성~화성 융릉,2023-10-08,2023-10-09,1795년 정조대왕의 을묘년 원행을 완벽하게 재현하는 국내 최대 퍼레이드,경기도 수원시,031-228-2367,https://www.swcf.or.kr/hlfl/,,경기도 수원시 팔달구 정조로 825,경기도 수원시 팔달구 남창동 6-2,37.28188256,127.0143944
740,제60회 수원화성문화제,행궁광장 등 수원화성 일원,2023-10-07,2023-10-09,정조대왕의 효심과 부국강병의 원대한 꿈으로 축성된 세계문화유산 수원화성에서 펼쳐지는 3일간의 행사,경기도 수원시,031-228-3068,https://www.swcf.or.kr/hlfl/,,경기도 수원시 팔달구 정조로 825,경기도 수원시 팔달구 남창동 6-2,37.28188256,127.0143944
741,2023 세계유산축전 수원화성,장안공원 등 수원화성 일원,2023-09-23,2023-10-14,세계유산의 가치를 향유 및 확산하기 위해 세계기록유산인 의궤와 세계문화유산인 수원화성을 활용한 공연 및 프로그램 등 행사 운영,경기도 수원시,031-228-2454,https://www.swcf.or.kr/hlfl/,,경기도 수원시 팔달구 정조로 825,경기도 수원시 팔달구 남창동 6-2,37.28188256,127.0143944
742,2023 수원화성 미디어아트,창룡문 · 연무대 일원,2023-10-06,2023-10-29,수원화성 대표 건축물에 프로젝션 맵핑/인터렉티브 미디어아트/레이저 등 디지털 미디어 기술을 활용한 미디어아트쇼,경기도 수원시,031-228-3084,https://www.swcf.or.kr/hlfl/,,경기도 수원시 팔달구 정조로 825,경기도 수원시 팔달구 남창동 6-2,37.2818782,127.0143876
743,2023 수원음식문화박람회,수원,2023-10-07,2023-10-09,"전국요리경연대회, 국제자매도시조리사초청전 동시개최로 수원의 맛과 멋을 알리는 수원만의 특색있는 음식문화박람회",경기도 수원시,031-228-2233,,,경기도 수원시 팔달구 정조로 825,경기도 수원시 팔달구 남창동 6-2,37.2818782,127.0143876
744,제18회 광릉숲축제,남양주시 광릉숲 일원,2023-09-23,2023-09-24,광릉숲길 걷기+숲속공연+환경경 체험프로그램 운영 등,경기도 남양주시,031-590-2454,,,경기도 남양주시 진접읍 봉선사길 32,경기도 남양주시 진접읍 부평리 255번지,37.7463984,127.1836293
765,선덕여왕 숭모재,부인사 숭모전,2023-05-04,2023-05-04,숭모재 의식 및 국악공연+전시 등 문화행사,대한불교조계종 부인사,,,,대구광역시 동구 팔공산로 967-28,,35.99490611,128.6739767
766,안심창조밸리 연꽃마을 축제,안심창조밸리 일원,2023-08-12,2023-08-15,연꽃길 힐링걷기대회+관련 문화행사,안심창조밸리 주민협의체,053-964-2901,,,,대구광역시 동구 괴전동 401-2,35.869549,128.735308
767,팔공산 왕건축제,동화천 생태하천 둔치,2023-09-16,2023-09-16,왕건관련 체험프로그램+동화천 걷기대회행사+무대행사,공산동 주민자치위원회,053-662-3981,,,,대구광역시 동구 지묘동 1220-19,35.942676,128.6426741
771,울산고래축제,고래문화특구,2023-05-11,2023-05-14,고래테마 체험+공연+행사 등,고래문화재단,052-226-1992,http://www.ulsanwhale.com/index.jsp,고래퍼레이드+수상 퍼포먼스+댕댕이 동문회+뮤지컬+다양한 공연+부대행사 등,울산광역시 남구 장생포고래로 244,울산광역시 남구 매암동 139-29,35.5027598,129.3807994
779,홍성한우바비큐페스티벌,홍주읍성 일원,2023-10-20,2023-10-22,한우바비큐 관련 체험 및 판매,(재)홍주문화관광재단,041-634-8707,https://hongju.or.kr/home/content.do?menu_cd=000064,홍주읍성,충청남도 홍성군 홍성읍 아문길 27,충청남도 홍성군 홍성읍 오관리 98,36.60172104,126.6613892
781,의령 홍의장군축제,서동생활공원 등 관내 일원,2023-04-20,2023-04-23,의병정신을 공감 공유하고 나라사랑 정신을 계승하고 기리는 축제 / 추모제향+혼불안치+개막식+전국의병주제관+의병출정퍼레이드+의병체험 등,(사)의병기념사업회,055-573-1100,www.의병제전.kr,,경상남도 의령군 의령읍 의병로24길 31-1,,0.0,0.0
782,의령 리치리치 페스티벌,서동생활공원 등 관내 일원,2023-10-06,2023-10-09,개막식+메인프로그램+상설프로그램등,의령 리치리치 페스티벌 추진위원회,055-570-2512,www.uiryeong.go.kr/richrichfestival,,경상남도 의령군 의령읍 의병로8길 44,,0.0,0.0
783,의령 신번문화축제,부림면 일원,2023-09-15,2023-09-17,"천년을 이어온 한지의 본고장이자 악성 우륵과 가야금의 탄생지인 부림면(옛 성열현)에서 의령의 대표적인 전통문화인 한지와 가야금을 주제로 체험, 전시, 공연 등 다양한 문화행사와 함께 전국가야금경연대회가 개최되는 세대공감형 축제",경상남도 의령군,055-570-2504,,,경상남도 의령군 의령읍 충익로63,,0.0,0.0
784,봉화은어축제,경상북도 봉화군 봉화읍 내성천 일원,2023-07-29,2023-08-06,은어반두잡이+맨손잡이 체험 등,경상북도 봉화군청,054-674-3053,https://bhftf.co.kr:8091/,분천산타마을+봉화은어축제,,경상북도 봉화군 봉화읍 내성리 506,36.89039738,128.7379707
785,봉화송이축제,경상북도 봉화군 봉화읍 내성천 일원,2023-09-21,2023-09-24,송이채취+시식회 등,경상북도 봉화군청,054-674-3053,https://bhftf.co.kr:8091/,분천산타마을+봉화송이축제,,경상북도 봉화군 봉화읍 내성리 506,36.89039738,128.7379707
817,금산삼계탕축제,금산인삼관 광장 일원,2023-07-07,2023-07-09,ㅇ삼계탕 사연 공모+먹방 콘테스트+라이브 커머스+쉐프 요리쇼+삼계탕 요리경연대회+대형 가마솥 요리 시연+가족 단위 물놀이 행사 등,충청남도 금산군,041-750-2303,http://www.insamfestival.co.kr/,,충청남도 금산군 금산읍 인삼광장로 30,충청남도 금산군 금산읍 신대리 392,36.1000256,127.5007304
818,강서 낙동강30리 벚꽃축제(2023년),대저생태공원,2023-03-31,2023-04-02,벚꽃길 걷기대회/체험행사/문화행사,부산광역시 강서구청,051-970-4062,http://www.bsgangseo.go.kr,,,부산광역시 강서구 대저1동 1-17,35.20933921,128.9865079
819,자라섬 국제재즈페스티벌,가평읍 읍내리 자라섬 일대,2023-10-07,2023-10-09,재즈공연+전시 및 체험+먹거리,(사)자라섬청소년재즈센터,031-581-2813,http://www.jarasumjazz.com/,남이섬+쁘띠프랑스+아침고요수목원,경기도 가평군 가평읍 자라섬로 60,경기도 가평군 가평읍 달전리 산7,37.8208975,127.5210451
820,대한민국 국향대전,함평엑스포공원,2023-10-21,2023-11-06,"K-문화, 함평 국화에 담다",전라남도 함평군+함평축제관광재단,061-320-2238,https://www.hpftf.or.kr/,풍요로운 가을 정취와 어우러지는 다양한 국화전시 및 체험,전라남도 함평군 함평읍 곤재로 27,전라남도 함평군 함평읍 수호리 1153-1,35.05813923,126.5226056
830,용인어린이상상의숲 가을특별행사 온 가족이 함께하는 <상상북크닉>,용인어린이상상의숲,2023-09-23,2023-09-23,"9월 ’독서의 달’ 기념, 어린이와 가족이 책을 쉽고 재미있게 접할 수 있는 독서문화 프로그램 운영",용인문화재단,031-323-6500,www.yicf.or.kr,,경기도 용인시 처인구 동백죽전대로 61,경기도 용인시 처인구 삼가동 28-6,37.24962344,127.1651613
831,용인어린이상상의숲 특별행사 <메리 상상 크리스마스>,용인어린이상상의숲,2023-12-24,2023-12-24,어린이들을 위한 크리스마스 기념 이벤트,용인문화재단,031-323-6500,www.yicf.or.kr,,경기도 용인시 처인구 동백죽전대로 61,경기도 용인시 처인구 삼가동 28-6,37.24962344,127.1651613
834,안성맞춤 남사당 바우덕이 축제,안성맞춤랜드,2023-10-06,2023-10-09,공식행사(개장식+개폐막식)+시립풍물단 상설공연+시민예술무대+바우덕이 국악콘서트+비봉산 행복산행+음악회+옛 장터 운영+농특산물 홍보판매+키즈체험프로그램+저탄소 프로그램+경관조명 운영 등,경기도 안성시,031-678-5995,https://www.anseong.go.kr/tourPortal/baudeogi/main.do,https://www.youtube.com/playlist?list=PLbpDsMMZa_mFUMgU9fmY6iC0zJO3s41sp,경기도 안성시 보개면 남사당로 198,경기도 안성시 보개면 복평리 303-3번지,37.03286992,127.3078038
844,가야문화축제(예정),수릉원+대성동 고분군+가야의거리 일원,2023-04-20,2023-04-23,공식+민속+축제+체험+설치+부대 연계행사,경상남도 김해시청,055-330-3944,http://www.gcfkorea.com,김해국립박물관+김수로왕릉+가야의 길+가야테마파크,경상남도 김해시 가야의길 126,경상남도 김해시 대성동 434,35.23606039,128.8730826
848,해맞이 행사,오봉산 등,2023-01-01,2023-01-01,"새해 소원빌기 행사+새해안녕기원행사,해맞이공연+먹거리제공 등",공모사업,053-665-2795,,,,대구광역시 북구 침산동 1643-45,35.89094921,128.5827398
849,금호강 정월대보름축제,산격대교 하단,2023-02-05,2023-02-05,달집태우기+달맞이 행사 등,공모사업,053-665-2172,,매년 정월대보름,,대구광역시 북구 산격동 1477-1,35.90943011,128.6039524
850,금호강 바람소리길축제,산격대교 하단,2023-09-01,2023-10-31,수상프로그램+체험+공연 등,행복북구문화재단,053-665-2172,,,,대구광역시 북구 산격동 1477-1,35.90943011,128.6039524
851,대구 북구 떡볶이 페스티벌,고성동 일대,2023-06-16,2023-06-18,떡볶이 페스티벌,대구광역시 북구청 문화예술과,053-665-2172,,매년 여름,,대구광역시 북구 고성동3가 2,35.88301935,128.5861543
852,거리예술제,칠성로상점가 차없는 거리,2023-05-05,2023-10-27,음악+댄스+마술 등,제주특별자치도 제주시청 문화예술과,,,,제주특별자치도 제주시 관덕로 11길 6,,0.0,0.0
853,거리예술제,누웨마루 상점가 거리 야외무대,2023-05-05,2023-10-27,음악+댄스+마술 등,제주특별자치도 제주시청 문화예술과,,,,제주특별자치도 제주시 신대로12길 52,,0.0,0.0
854,202청도세계코미디아트페스티벌,청도야외공연장,2023-10-13,2023-10-15,코미디를 테마로 한 공연+전시+체험 등,경상북도 청도군청,054-370-6376,http://www.청도코아페.kr,,경상북도 청도군 화양읍 청려로 1846,경상북도 청도군 화양읍 동천리 457,35.64838523,128.7186823
855,안동국제탈춤축제,안동탈춤공원+시내일원+하회마을 외,2023-10-02,2023-10-09,탈춤공연+경연대회+대동난장 등,경상북도 안동시청,054-840-3400,www.maskdance.com,명예대표 문화관광축제,경상북도 안동시 경동로 684(운흥동) 등 원도심 일대,,36.5627376,128.732934
856,아트밸리 아산 제62회 성웅 이순신 축제,이순신종합운동장+현충사+온양온천역 광장+곡교천 일원,2023-04-28,2023-04-30,삼도수군통제사 깃발 게양식 제1회 아트밸리 아산 군악의장 페스티벌 제1회 아트밸리 아산 백의종군길 전국 걷기대회 등,충청남도 아산시,041-540-2550,https://culture.asan.go.kr/_esunshin/n23/,,충청남도 아산시 남부로 370-24 이순신종합운동장,충청남도 아산시 풍기동 366-2,36.76817566,127.0207236
869,구미 푸드페스티벌,송정동 복개천,2023-10-28,2023-10-29,공연+푸드존,경상북도 구미시청,054-480-5592,,,,경상북도 구미시 송정동 505,36.11616508,128.3491387
892,해맞이행사,동촌유원지 해맞이 공원,2023-01-01,2023-01-01,신년메시지+무대공연,대구광역시 동구청,053-662-2172,,,,대구광역시 동구 효목동 212-2,35.884546,128.6456995
893,정월대보름 달집태우기 행사,안심교 하부 금호강 둔치,2023-02-05,2023-02-05,공연+달집태우기,안심백인청년회,053-662-2172,,,대구광역시 동구 금호강변로,,35.863611,128.713736
894,2023 동촌금호강예술제 Art Blossom,"아양아트센터, 지저동 금호강 둔치",2023-03-28,2023-04-02,버스킹공연+노래하는 대한민국,대구광역시 동구청,053-662-4073,,,,대구광역시 동구 불로동 1058,35.89472234,128.6332203
895,팔공산 벚꽃축제,팔공산 동화지구 분수대광장,2023-04-06,2023-04-09,무대공연+봄나물 비빔밥 축제+벚꽃가요제,팔공산 동화지구 상가번영회,053-981-6624,,,,대구광역시 동구 용수동 27-5,35.98972752,128.696466
896,마노르블랑 봄꽃축제,마노르블랑,2023-03-05,2023-04-16,마노르블랑에서는 올해 봄을 맞이하여 봄꽃축제가 열리고 있다.,마노르블랑,064-794-0999,https://www.instagram.com/jejumanorblanc,,제주특별자치도 서귀포시 안덕면 일주서로2100번길 46,,33.2548352,126.2949866
897,제주허브동산 설유화 축제,제주허브동산,2023-03-25,2023-04-15,제주허브동산에서 봄나들이 시즌을 맞아 3월 25일부터 설유화 축제를 개최한다.,제주허브동산,064-787-7362,www.herbdongsan.com,,제주특별자치도 서귀포시 표선면 돈오름로 170,,33.3291241,126.8147261
921,<2023 피크닉 콘서트 - We Go Together Concert>,용인미르스타디움,2023-05-20,2023-05-20,용인시민 대상 주간 체험 프로그램 및 야외 공연 등,용인문화재단,031-323-6341,www.yicf.or.kr,,경기도 용인시 처인구 동백죽전대로 61,경기도 용인시 처인구 삼가동 28-6,37.24962344,127.1651613
923,대전효문화뿌리축제,뿌리공원 및 원도심 일원,2023-10-13,2023-10-15,개·폐막식+문중(문화)·체험(참여) 주제공연 프로그램+어린이 성씨 놀이터+각종 온·오프라인 참여 이벤트 등,대전광역시 중구청,042-606-6292,https://www.djjunggu.go.kr/hyo-ppuri/index.do,뿌리공원,대전광역시 중구 뿌리공원로 47,대전광역시 중구 안영동 71-2,36.28533721,127.3844931
924,제24회 양평단월고로쇠축제,단월레포츠공원,2023-03-18,2023-03-19,물맑은 양평의 청정지역에서만 나오는 소리산 고로쇠 수액으로 매년 3월에 개최되는 축제,단월고뢰쇠축제추진위원회,031-770-3192,www.양평고로쇠축제.com,,경기도 양평군 단월면 보룡길 53,경기도 양평군 단월면 보룡리 343-2,37.53855944,127.672992
925,제20회 양평 산수유 한우 축제,개군레포츠공원,2023-04-01,2023-04-02,노랑 산수유 꽃이 필 4월 주읍리 등 마을길을 걷고 개군한우를 먹으며 즐길수 있는 축제,양평산수유축제추진위원회,031-770-3342,,,경기도 양평군 개군면 자진개1길 83,경기도 양평군 개군면 하자포리 375,37.43277374,127.5313533
926,제13회 양평 용문산 산나물축제,용문산관광지일대,2023-04-28,2023-04-30,"산나물의 맛과 향기를 느낄수 있는 신나는 공연, 즐거운 체험과 전+산나물 요리 등 다채로운 축제",경기도 양평군청,031-770-1072,,,경기도 양평군 용문면 용문산로 782,경기도 양평군 용문면 신점리 625,37.55023222,127.5704646
927,제13회 양평 용문산 산나물축제,용문역 앞,2023-05-05,2023-05-07,"산나물의 맛과 향기를 느낄수 있는 신나는 공연, 즐거운 체험과 전+산나물 요리 등 다채로운 축제",용문면산나물축제추진위원회,031-770-3332,,,경기도 양평군 용문면 용문역길 21,경기도 양평군 용문면 다문리 736-13,37.48245012,127.5945009
928,제9회 양평 워터워 페스티벌(양평 물축제),옥천면 레포츠공원 및 사탄천 일원,2023-07-28,2023-07-30,옥천면 사탄천 일대에서 가족과 함께 시원한 여름을 즐기는 축제,옥천면물축제추진위원회,031-770-3132,https://okcheonwater.modoo.at/,,경기도 양평군 옥천면 옥천체육공원길 66,경기도 양평군 옥천면 옥천리 767,37.52001447,127.4561346
934,제21회 옥천묘목축제,옥천묘?漬貶? 일원,2023-03-31,2023-04-02,묘목판매+묘목 나눠주기 등,충청북도 옥천군청·옥천이원묘목영농조합법인,043-730-3593,,,충청북도 옥천군 이원면 이원로 830,충청북도 옥천군 이원면 이원리 503,36.24660998,127.6268656
935,제13회 옥천참옻축제,옥천향수공원 일원,2023-04-29,2023-04-30,옻순판매+옻음식경연대회+공연 등,충청북도 옥천군청,043-730-3594,,,충청북도 옥천군 옥천읍 중앙로 131,충청북도 옥천군 옥천읍 삼양리 125,36.30827363,127.5729751
950,안산국제거리극축제,안산문화광장 및 안산시 일대,2023-05-05,2023-05-07,순수예술축제,경기도 안산시청,031-481-0536,https://www.ansanart.com/index.do,안산문화광장,경기도 안산시 단원구 광덕대로 157,경기도 안산시 단원구 고잔동 800,37.310742,126.829822
951,"용인어린이상상의숲 어린이 주간 특별 행사 <오, 오 상상이상>",용인어린이상상의숲,2023-05-05,2023-05-05,어린이날·용인어린이상상의숲 개관일 기념 어린이와 가족을 위한 특별 행사,용인문화재단,031-323-6500,www.yicf.or.kr,,경기도 용인시 처인구 동백죽전대로 61,경기도 용인시 처인구 삼가동 28-6,37.24962344,127.1651613
955,탐라국입춘굿,관덕정 일원,2023-02-02,2023-02-04,2023 계묘년 탐라국입춘굿 성안이 들썩 관덕정 꽃마중. 제주 원도심에서 만나는 봄맞이 축제,제주특별자치도 제주시,064-728-2714,http://blog.daum.net/jepaf,,제주특별자치도 제주시 관덕로 19,,33.513394,126.5214658
956,휴애리 매화축제,휴애리,2023-02-24,2023-03-13,올해로 열일곱 번째 열리는 휴애리 매화축제는 휴애리 공원에서 정성스럽게 키운 매화꽃을 매화올레길 매화정원 등 공원 곳곳에서 감상할 수 있는 휴애리 대표 축제이다.,휴애리자연생활공원,064-732-2114,www.hueree.com,,제주특별자치도 서귀포시 남원읍 신례동로 256,,33.3085451,126.6343808
957,한림공원 매화축제,제주한림공원,2023-02-11,2023-03-12,한림공원 매화정원에서 고고한 매화의 기품과 수선화 향기와 함께 성큼 다가온 봄의 기운을 만끽해보자.,제주한림공원,064-796-0001,www.hallimpark.com,,제주특별자치도 제주시 한림읍 한림로 300,,33.390213,126.2396912
958,상효원수목원 튤립축제,상효원수목원,2023-03-04,2023-04-09,힐링 수목원 상효원에서는 봄을 맞이하여 여덟 번째 튤립축제를 진행한다.,상효원수목원,064-733-2200,www.sanghyowon.com,,제주특별자치도 서귀포시 산록남로 2847-37,,33.3072168,126.5860085
959,한림공원 왕벚꽃축제,제주한림공원,2023-03-24,2023-04-08,완연한 봄을 알리는 한림공원 왕벚꽃축제,제주한림공원,064-796-0001,www.hallimpark.com,,제주특별자치도 제주시 한림읍 한림로 300,,33.390213,126.2396912
978,황룡강 (洪)길동무 꽃길 축제,황룡강변 일원+홍길동테마파크,2023-05-19,2023-05-21,공연+체험+판매행사 등,전라남도 장성군,061-390-7240,https://www.jangseong.go.kr/home/tour_new/festival/festival_04/festival_04_02,황룡강+홍길동테마파크,,"전라남도 장성군 장성읍 기산리 461-1, 전라남도 장성군 황룡면 홍길동로 431",35.30951048,126.7815062
981,2023년 개화산 해맞이행사,개화산 정상(방화2동),2023-01-01,2023-01-01,해맞이축제,서울특별시 강서구,02-2600-6455,,,,서울특별시 강서구 개화동 산 91-4,0.0,0.0
982,2023년 개화산 봄꽃축제,방화근린공원,2023-04-22,2022-04-22,경관조명전시+플리마켓+버스킹 등,서울특별시 강서구,02-2600-6455,,,서울특별시 강서구 금낭화로 176,,0.0,0.0
983,2023년 마곡문화의 거리 버스킹,마곡문화의거리,2023-04-29,2023-06-30,다양한 공연 및 부대행사,서울특별시 강서구,02-2600-6634,,축제기간 중 매주 금요일+토요일,서울특별시 강서구 마곡동로 3길 23 외 1곳,,0.0,0.0
984,제7회 겸재문화예술제,겸재정선미술관+어울림공원+궁산근린공원,2023-05-12,2023-05-13,전국사생대회+청소년문화예술제+체험마당 등,서울특별시 강서구,02-2659-2206,http://gjjs.or.kr/,,서울특별시 강서구 양천로47길 36 외 1곳,,0.0,0.0
985,2023년 우장산 신록 페스티벌,우장산축구장,2023-05-20,2023-05-20,체험 및 부대행사+버스킹 영화상영 등,서울특별시 강서구,02-2600-6634,,,서울특별시 강서구 우장산로10길 112,,0.0,0.0
986,강서문화예술페스티벌,아트리움,2023-06-30,2023-07-01,공연+전시 및 체험부스,서울특별시 강서구,02-2600-5890,,,서울특별시 강서구 가로공원로 195,,0.0,0.0
987,금천하모니축제 2021,금천구청 광장 일대,2023-05-12,2023-05-14,메인공연 및 주민탈춤 퍼포먼스+안양천 빛길 조성+플리마켓 등,서울특별시 금천구청+금천문화재단,02-2627-1442,https://gcfac.or.kr/content?gcfac_menu_cd=U0107,,서울특별시 금천구 시흥대로73길 70,서울특별시 금천구 시흥동 1020,37.45706565,126.8960369
988,제천국제음악영화제,제천시 일원,2023-08-10,2023-08-15,음악영화제,제천국제음악영화제집행위원회,043-646-2242,http://www.jimff.org,,충청북도 제천시 의림대로12길 14-1,충청북도 제천시 청전동 110,37.1493417,128.2160865
989,제천의병제,자양영당 등,2023-10-20,2022-10-22,의병제,제천문화원,043-642-3646,http://www.jecheoncc.or.kr,,충청북도 제천시 의림대로 125,충청북도 제천시 중앙로2가 26-1,37.13923321,128.210774
999,태백산 눈축제,태백산국립공원+황지연못 일원,2023-01-01,2023-01-01,눈조각대회+눈꽃등반대회+체험행사+공연 등,태백시문화재단,033-553-6900,http://tbcf.or.kr/,,강원도 태백시 장성1길 171,강원도 태백시장성동 169-1,37.10051315,129.0082172
1004,합천기록문화축제,대장경테마파크,2023-10-21,2023-11-05,전시 및 공연 등 기록문화를 느낄 수 있는 축제,경상남도 합천군청,055-930-4697,https://www.hc.go.kr/06573/08250.web,,경상남도 합천군 가야면 가야산로 1160,경상남도 합천군 가야면 야천리 943,35.76749785,128.1365362
1005,충주DIVE페스티벌,충주탄금호국제조정경기장~중앙탑공원 일원,2023-06-15,2023-06-18,수상불꽃+뮤직페스티벌+드론쇼+키즈파크 운영,충청북도 충주시청,043-851-7981,www.cjlake.kr,,충청북도 충주시 중앙로 128,충청북도 충주시 성내동 215,36.97061868,127.9372208
1008,한림공원 수선화축제,제주한림공원,2023-01-21,2023-02-19,제주 한림공원에서는 2023년 1월 21일(토)부터 2023년 2월 19일(일)까지 제12회 한림공원 수선화축제가 열린다.,제주한림공원,064-796-0001,www.hallimpark.com,,제주특별자치도 제주시 한림읍 한림로 300,,33.390213,126.2396912
1016,정선아리랑제,강원도 정선군 정선읍 아라리공원,2023-09-14,2023-09-17,강원도 무형문화재 제1호인 정선아리랑의 전승보존 및 계승,강원도 정선군청,033-563-2646,www.arirangfestival.kr,,강원도 정선군 정선읍 봉양3길 17,강원도 정선군 정선읍 봉양리 253-1,37.38024298,128.6602287
1017,곡성세계장미축제,섬진강기차마을,2023-05-20,2023-05-29,세계 유명 장미로 이뤄진 공원에서 다양한 공연과 이벤트 개최,전라남도 곡성군청,061-360-8471,www.gokseong.go.kr,,전라남도 곡성군 오곡면 기차마을로 232,전라남도 곡성군 오곡면 오지리 770-5,0.0,0.0
1018,곡성아이스크림페스티벌,레저문화센터,2023-07-14,2023-07-16,전국 최초 아이스크림을 테마로 한 피서형 페스티벌,전라남도 곡성군청,061-360-8471,www.gokseong.go.kr,,전라남도 곡성군 곡성읍 곡성로 855,전라남도 곡성군 곡성읍 읍내리 254,0.0,0.0
1019,곡성심청어린이대축제,섬진강기차마을,2023-10-06,2023-10-09,어린이 중심 콘텐츠로 캐릭터 공연과 가족형 이벤트 개최,전라남도 곡성군청,061-360-8471,www.gokseong.go.kr,,전라남도 곡성군 오곡면 기차마을로 233,전라남도 곡성군 오곡면 오지리 770-5,0.0,0.0
1022,광주왕실도자기축제,곤지암도자공원 일원,2023-05-04,2023-05-14,광주왕실도자기,경기도 광주시 체육관광과,031-760-1729,,,경기도 광주시 곤지암읍 경충대로 727,경기도 광주시 곤지암읍 삼리 72-1번지,37.35027997,127.3347904
1033,2023하동세계차엑스포,하동군 적량면 하동스포츠파크+하동군 화개면 하동야생차문화축제장,2023-05-04,2023-06-03,전시+교역+이벤트+체험+교육+여가+관광(다원+다실 등),경상남도청+경상남도 하동군청,055-880-7023,https://www.hadongt.co.kr/,,경상남도 하동군 적량면 공설운동장로 207 일원 + 경상남도 하동군 화개면 쌍계로 571-25,,0.0,0.0
1034,제1회 도농 어울림 축제,동탄여울공원,2023-09-23,2023-09-24,농업문화체험+직거래 장터,경기도 화성시,031-5189-6335,,,,경기도 화성시 오산동 1060,0.0,0.0
1035,제24회 화성 효 마라톤 대회,화성종합경기타운,2023-10-07,2023-10-07,마라톤 대회,경기도 화성시,031-5189-6193,,,경기도 화성시 향남읍 향남로 470,경기도 화성시 향남읍 도이리 668번지,37.13754375,126.9242565
1036,정조 효 문화제 및 정조대왕 능행차 공동재현,융건릉 일원,2023-10-08,2023-10-09,영우원 천장 재현+을묘년 원행 재현+현륭원 제향 등,경기도 화성시,031-5189-3835,http://www.정조효문화제.com/,,,경기도 화성시 안녕동 187-39,37.21170324,126.9897651
1037,2023 화성시민 한마음 체육대회,화성종합경기타운,2023-10-14,2023-10-15,종목별 대회,경기도 화성시,031-5189-6193,,,경기도 화성시 향남읍 향남로 470,경기도 화성시 향남읍 도이리 668번지,37.13754375,126.9242565
1038,2023 화성 학생동아리 축제,동탄센트럴파크 일원,2023-10-21,2023-10-21,초중고 학생동아리 공연+전시 및 체험부스 운영,경기도 화성시,031-898-8440,http://www.hsscf.kr/,,경기도 화성시 동탄공원로2길 22,경기도 화성시 반송동 59번지,37.20563857,127.0635805
1039,화성 루나 빛 축제,동탄호수공원,2023-10-28,2023-10-28,빛 조형물 및 포도존+루나쇼+문화공연 등,경기도 화성시,031-5189-3835,,,,경기도 화성시 송동 54-1번지,0.0,0.0
1040,황룡강 가을꽃축제,황룡강변 일원,2023-10-07,2023-10-15,공연+체험+판매행사 등,전라남도 장성군,061-390-7240,https://www.jangseong.go.kr/home/tour_new/festival/festival_04/festival_04_04,황룡강,,전라남도 장성군 장성읍 기산리 461-1,35.30951048,126.7815062
1047,여르미오페스티벌,안산문화예술의전당 야외 광장 일대,2023-08-19,2023-08-19,대중예술축제,안산문화재단,031-481-4030,https://www.ansanart.com/index.do,,경기도 안산시 단원구 화랑로 312,경기도 안산시 단원구 고잔동 817,37.318426,126.823108
1048,전포커피축제,전포카페거리 일원,2023-10-13,2023-10-15,전포 코오피 스쿨+아바타투어 등 부산진구 SNS를 활용한 다양한 체험+이벤트 프로그램 운영,부산광역시 부산진구청,051-605-4524,https://www.busanjin.go.kr/index.busanjin?menuCd=DOM_000001003003006000,,부산광역시 부산진구 동천로 92(전포동),부산광역시 부산진구 전포동 668-1,35.1570356,129.0630291
1049,부산 희망 드림 빛축제,서면1번가 일원,2023-10-13,2024-01-31,테마별 빛 시설물 조성 + 문화예술 프로그램 운영,부산광역시 부산진구청,051-605-4522,https://www.busanjin.go.kr/index.busanjin?menuCd=DOM_000001003003007000,,부산광역시 부산진구 시민공원로30 (범전동),부산광역시 부산진구 부암동 666-16,35.16283064,129.053188
1050,금산인삼축제,금산인삼관 광장 및 인삼약초시장 일원,2023-10-06,2023-10-15,ㅇ인삼캐기 체험+인삼약초체험+생활건강 체험 등 건강 체험관 운영+국제인삼교역전+인삼생활관+축제 40주년 기념 금산인삼 시대별 콘텐츠 구성 응답하라 1981 등,충청남도 금산군,041-750-2303,http://www.insamfestival.co.kr/,,충청남도 금산군 금산읍 인삼광장로 30,충청남도 금산군 금산읍 신대리 392,36.1000256,127.5007304
1075,하동 섬진강문화재첩축제,하동읍 송림공원 및 섬진강변 일원,2023-07-28,2023-07-30,"섬진강의 문화, 하동재첩, 축제를 결합한 종합 관광, 산업 축제의 가능성을 제시한 대한민국 대표 여름축제로 매년 7월경 하동읍 송림공원과 섬진강에서 개최되는 축제이며, 정부지정 유망축제이다",(사)하동섬진강문화재첩축제추진위원회,055-880-2450,https://www.hadong.go.kr/02641/02652/02812.web,,경상남도 하동군 하동읍 섬진강대로 2107-8,,0.0,0.0
1077,회남재 숲길걷기,청암면 삼성궁 주차장 옆,2023-10-28,2023-10-28,매년 10월말에 개최되는 우리나라 걷기 여행 축제의 대표 주자로 지리산의 가을풍경과 생태 숲길의 산림욕으로 위로와 힐링의 시간을 만끽할 수 있다,서경방송,055-880-2051,https://www.hadong.go.kr/02641/02652/02820.web,,경상남도 하동군 청암면 삼성궁길 86-15,,0.0,0.0
1090,화개장터 벚꽃축제,하동군 화개면 그린나래광장,2023-03-31,2023-04-02,꽃샘추위가 끝나고 4월로 접어들면 전라도와 경상도를 경계로 하는 화개에는 그 좋은 벚꽃이 십리에 날려 화사하게 봄을 재촉한다 눈처럼 하얀 벚꽃은 섬진청류와 화개동천 25km를 아름답게 수놓아 화사한 볼거리 제공하며 다채로운 문화행사도 펼쳐진다,화개면 청년회,055-880-2051,https://www.hadong.go.kr/02641/02652/02807.web,,경상남도 하동군 화개면 쌍계로 71-9,,0.0,0.0
1091,하동 야생차문화축제,하동군 화개면 일대,2023-05-04,2023-06-03,천 년의 역사를 지닌 우리나라 최초의 차 시배지에서 매년 개최되는 정부지정 명예 문화관광축제이다. 녹음이 우거지는 5월의 야생차축제에서 왕의 녹차의 맛과 향을 느끼며 휴식과 여유의 시간을 즐길 수 있다.,(사)하동야생차문화축제조직위원회,055-880-2734,https://www.hadong.go.kr/02641/02652/02809.web,,경상남도 하동군 화개면 화개면 쌍계로 571-25,,0.0,0.0
1092,하동 북천 꽃 양귀비 축제,하동군 북천면 직전리 꽃단지 일원,2023-05-13,2023-05-22,동계 경관작물로 꽃양귀비를 전국 최대 면적으로 식재하며 경관보전직불제 사업과 연계하여 농촌경관을 활용하는 농촌 체험 관광형 축제로 시골간이역에 레일바이크를 타고 꽃밭이 가득한 고향역에 대한 향수와 농촌의 낭만을 만끽할 수 있다.,하동북천코스모스메밀꽃 영농조합법인,055-884-1235,https://www.hadong.go.kr/02641/02652/02810.web,,경상남도 하동군 북천면 경서대로 2446-6,,0.0,0.0
1095,용전들노래 가을걷이 한마당,용전동 용전마을 일원,2023-10-01,2023-10-31,용전들노래재현+체험마당 공연 등,광주광역시 북구청+광주광역시,062-410-8369,https://bukgu.gwangju.kr/board.es?mid=a10201110000&bid=0315,,광주광역시 북구 용전마을길 42(용전동),광주광역시 북구 용전동 171-3,35.23893658,126.8973084
1097,홍성역사인물축제,홍주읍성 일원,2023-05-05,2023-05-06,역사인물관련 체험 및 공연 등,(재)홍주문화관광재단,041-634-8706,https://hongju.or.kr/home/content.do?menu_cd=000023,홍주읍성,충청남도 홍성군 홍성읍 아문길 27,충청남도 홍성군 홍성읍 오관리 98,36.60172104,126.6613892
1106,강진청자축제,대구면 고려청자요지 일원,2023-02-23,2023-03-01,1000년전 청자문화를 꽃피웠던 청자의 고장 강진에서 불과 빛을 주제로 하는 도예 체험으로 강진청자의 아름다움과 섬세함을 느껴볼 수 있는 겨울축제,전라남도 강진군,061-430-3352,http://www.gangjin.go.kr/culture/,,전라남도 강진군 대구면 청자촌길 33,전라남도 강진군 대구면 사당리 127,34.50866041,126.8008375
1111,양양 송이&연어축제,양양남대천 둔치 및 부대행사장,2023-10-04,2023-10-08,"송이 및 연어 홍보부스, 부대행사",양양문화재단,033-671-3803,https://tour.yangyang.go.kr,,,강원도 양양군 양양읍 남문리 226-2,38.07312233,128.6241919
1113,황매산 억새 축제,황매산군립공원,2023-10-14,2023-10-29,황매산 억새를 즐기는 축제,경상남도 합천군청,055-930-4753,http://www.hwangmaesan.kr,,경상남도 합천군 가회면 황매산공원길 4,경상남도 합천군 가회면 둔내리 1319,35.48184913,128.0037495
1124,합천벚꽃마라톤대회,백리벚꽃길 코스,2023-04-02,2023-04-02,벚꽃길에서 펼쳐지는 달리미들의 대향연,경상남도 합천군청,055-930-4943,https://www.hc.go.kr/06573/06623/06624.web,,경상남도 합천군 대병면 합천호수로 197,경상남도 합천군 대병면 회양리 1603-1,35.531585,128.0295197
1125,황매산 철쭉제,황매산군립공원,2023-04-29,2023-05-14,황매산 철쭉을 즐기는 축제,경상남도 합천군청,055-930-4753,http://www.hwangmaesan.kr,,경상남도 합천군 가회면 황매산공원길 4,경상남도 합천군 가회면 둔내리 1319,35.48184913,128.0037495
1126,합천바캉스축제,정양레포츠공원,2023-07-29,2023-08-06,전국에서 가장 HOT한 합천에서 가족과 함께하는 바캉스,경상남도 합천군청,055-930-4666,http://www.hcvacance.kr/,,경상남도 합천군 대양면 동부로 39-19,경상남도 합천군 대양면 정양리 613-2,35.5573152,128.1675442
1129,2023 구리 유채꽃 한강예술제,구리한강 시민공원,2023-05-12,2023-05-14,무대공연+체험부스운영+먹거리 체험+꽃 관람,경기도 구리시청,031-550-2065,http://www.guri.go.kr,,경기도 구리시 코스모스길14번길 249(토평동),경기도 구리시 토평동 810,37.574478,127.132863
1130,제18회 남해 마늘한우 축제,남해유배문학관,2023-06-15,2023-06-18,남해 마늘 한우 판매,남해 마늘한우 축제추진위원회,055-860-3908,http://tour.namhae.go.kr/main.web,,경상남도 남해군 남해읍 남해대로 2745,경상남도 남해군 남해읍 남변리 555,0.0,0.0
1131,남해읍 선소마을 전어축제,선소항 위판장,2023-08-04,2023-08-05,전어 판매(먹거리 및 활어),선소마을회,055-860-8005,http://tour.namhae.go.kr/main.web,,경상남도 남해군 남해읍 선소리 3-13,경상남도 남해군 남해읍 선소리 3-13,0.0,0.0
1132,제14회 화성시 가족사랑축제,동탄호수공원,2023-05-13,2023-05-13,공개방송+시민 참여 프로그램+체험 부스,경기도 화성시,031-290-4626,https://www.hcf.or.kr,,,경기도 화성시 송동 54-1번지,37.256791,127.152995
1133,제13회 화성 뱃놀이 축제,전곡항+제부도,2023-06-09,2023-06-11,해양레저 체험+야간공연,경기도 화성시,031-5189-6136,http://hs-boatingfestival.com/,,경기도 화성시 서신면 전곡항로 21,경기도 화성시 서신면 전곡리 974번지,37.186718,126.6524994
1134,제9회 화성송산포도축제,궁평항,2023-09-02,2023-09-03,포도 체험+직거래 장터,경기도 화성시,031-5189-6441,,,경기도 화성시 서신면 궁평항로 1049-24,경기도 화성시 서신면 궁평리 689번지,37.11602908,126.6812748
1147,명품콘서트,분당 중앙공원 야외공연장,2023-04-01,2023-05-31,순수예술공연 2회,경기도 성남문화재단 융합콘텐츠기획팀,,,,경기도 성남시 분당구 성남대로 550,경기도 성남시 분당구 수내동 65,0.0,0.0
1148,제1회 도촌 봄봄맞이길 벚꽃축제,도촌북로 일대,2023-04-08,2023-04-08,주민들의 화합을 위한 벚꽃축제 개최,제1회 도촌 봄봄맞이길 벚꽃축제 추진위원회+도촌종합사회복지관+도촌동 유관단체,,,,경기도 성남시 중원구 도촌북로 28,,0.0,0.0
1149,제17회 벌터산한마당축제,수진공원,2023-04-08,2023-04-08,공연+전시+먹거리마당,제17회 벌터산한마당축제추진위원회,,,,경기도 성남시 수정구 성남대로 1204,,0.0,0.0
1150,양양문화제,양양남대천 둔치 및 부대행사장,2023-06-08,2023-06-10,2023년 양양문화제,양양문화제위원회,033-670-2795,https://tour.yangyang.go.kr,,,강원도 양양군 양양읍 남문리 226-2,38.07312233,128.6241919
1152,제19회 진안고원 운장산 고로쇠축제,주천면 운일암반일암 삼거광장,2023-03-11,2023-03-12,고로쇠 관련 체험+고로쇠 판매 등,전라북도 진안군,063-430-2393,https://www.jinan.go.kr/festival/,,,전라북도 진안군 주천면 대불리 75-1,35.98388102,127.3882948
1153,제13회 진안고원 수박축제,동향면 체련공원 일원,2023-07-29,2023-07-30,수박왕 선발대회+수박판매 등,전라북도 진안군,063-430-2393,https://www.jinan.go.kr/festival/,,전라북도 진안군 동향면 진성로 1687,전라북도 진안군 동향면 능금리 2198-2,35.84147374,127.5747111
1154,2023 진안홍삼축제,마이산 북부일원,2023-09-22,2023-09-24,"홍삼, 수삼판매+홍삼관련체험+문화공연 등",전라북도 진안군,063-430-2392,https://www.jinan.go.kr/festival/,,전라북도 진안군 진안읍 마이산로 160,전라북도 진안군 진안읍 단양리 778,35.773251,127.4162559
1165,천안흥타령춤축제,삼거리공원,2023-10-05,2022-10-09,춤경연대회(전국춤경연대회+국제춤 대회+거리퍼레이드 등)+전시홍보 부스운영(중소기업제품판매+천안 농산물 홍보 및 체험한마당 등)+부대체험행사,천안문화재단,041-900-7020,,,충청남도 천안시 서북구 번영로 208,,36.8190982,127.1132992
1170,2023 통영한산대첩축제,통영 삼도수군통제영 및 통영시 일원,2023-08-03,2023-08-12,고유제+군점+이순신장군 행렬+한산대첩 재현+학술발표회+통제영무과 체험마당,경상남도 통영시,055-650-4532,https://tyhansancf.or.kr/,,경상남도 통영시 세병로 27(문화동),경상남도 통영시 문화동 62,34.84715495,128.423489
1172,서편제보성소리축제,보성문화예술회관 일원,2023-04-29,2023-05-01,판소리+고수 경연 대회,서편제보성소리축제추진위원회,,,,전라남도 보성군 보성읍 송재로 281-9,,0.0,0.0
1173,벌교꼬막축제,벌교읍천변 일원,2023-10-27,2023-10-29,지역 농특산물 판매 및 체험 전시행사,벌교꼬막추진위원회,,,,,전라남도 보성군 벌교읍 회정리 663-1,0.0,0.0
1176,2023 군산시간여행축제,시간여행마을 일원,2023-10-06,2023-10-09,근대를 축으로 한 시간여행축제,전라북도 군산시,063-454-3302,http://festival.gunsan.go.kr/,주변관광지 : 군산근대역사박물관+초원사진관+동국사 등,전라북도 군산시 중앙로 178,전라북도 군산시 중앙로1가 11-1,35.98772627,126.711725
1177,울산쇠부리축제,달천철장 일원,2023-05-12,2023-05-14,체험+전시+학술,울산광역시 북구청,052-293-3500,www.soeburi.org,,울산광역시 북구 달천철장길 58,울산광역시 북구 달천동 1-7,35.63421726,129.3289893
1178,크리스마스 마켓,원동구도심상가,2023-11-20,2023-12-24,지역 주민들의 화합과 지역경제 활성화를 위한 겨울 축제,오산시 문화예술과,031-8036-7614,https://www.osan.go.kr/main.do,,경기도 오산시 원동로37번길 37-1,경기도 오산시 원동 794,37.145359,127.070236
1179,제27회 부천국제판타스틱영화제,부천시청 일원,2023-06-29,2023-07-09,개폐막식+영화상영+문화행사 등,(사)부천국제판타스틱영화제조직위원회,032-327-6313,http://www.bifan.kr,,경기도 부천시 길주로 210,경기도 부천시 중동 1156,37.50358247,126.765337
1180,제4회 양평부추축제,양동역 일원,2023-09-16,2023-09-17,양동면의 특산품인 부추로 다양한 음식과 더불어 을미의병 발상지로서 의병출정식 등 행사,양평부추축제추진위원회,031-774-3253,,,경기도 양평군 양동면 양동역길 19,경기도 양평군 양동면 쌍학리 223-2,37.42030404,127.7544833
1181,2023년 울산공업축제,태화강국가정원+남구둔치 일원,2023-06-01,2023-06-04,"울산의 과거와 현재, 미래를 보여주고 산업도시 울산의 정체성을 나타내는 울산의 대표축제",울산광역시,052-259-2728,http://www.울산공업축제.kr,,,울산광역시 남구 신정동 1513,35.55056694,129.3077348
1182,울산옹기축제,외고산 옹기마을 일원,2023-05-05,2023-05-07,국내 유일의 옹기특화 축제,울산광역시 울주군청,052-204-0355,https://www.onggi.or.kr/,,,울산광역시 울주군 온양읍 고산리 512-4,35.43299143,129.2784466
1183,간절곶 해맞이 축제,울주군 서생면 간절곶 공원 일원,2023-12-31,2024-01-01,간절곶은 새해 한반도 육지부에서 해가 가장 먼저 뜨는 곳으로 매년 축제 때 마다 전국에서 관광객들이 방문한다.,울산광역시 울주군청,052-204-0315,https://www.ucf.or.kr:478/culturearts/festival_01.html,,울산광역시 울주군 서생면 간절곶1길 39-2,,35.3589245,129.3602963
1184,울산쇠부리축제,달천철장 일원,2023-05-12,2023-05-14,한반도 최초의 철산지 달천철장에서 펼처지는 철문화축제,울산광역시 북구청,052-293-3500,http://www.soeburi.org/,,울산광역시 북구 달천철장길 58,울산광역시 북구 달천동 1-7,35.63424081,129.3289893
1185,울산고래축제,장생포 고래문화특구 일원,2023-05-11,2023-05-14,"고래문화를 계승하고 보전하기 위해, 고래의 본고장 울산에서 열리는 힐링 페스티벌",울산광역시 남구청,052-226-1999,http://www.ulsanwhale.com,,울산광역시 남구 장생포고래로 244,,35.5027537,129.38079
1186,궁거랑 벚꽃 한마당,남구 무거생태하천 일원,2023-04-01,2023-04-02,울산광역시 남구 삼호동 무거생태하천에서 매년 3~4월에 개최하는 문화 행사,울산제일일보,052-226-5412,https://www.ulsannamgu.go.kr/tour/board/tourFestival2/152798/view.do,,울산광역시 남구 삼호로 15,,35.5500212,129.266004
1187,태화강 국가정원 봄꽃축제,태화강 국가정원,2023-05-19,2023-05-21,6천만 송이 봄꽃 물결과 함께하는 태화강 국가정원 봄꽃 전시,울산광역시,052-229-7561,https://www.ulsan.go.kr/s/garden/main.ulsan,,울산광역시 중구 태화강국가정원길 154,울산광역시 중구 태화동 667,35.548823,129.291263
1193,2023 서귀포유채꽃축제,가시리 유채꽃광장 일대,2023-03-31,2023-04-02,가시리 명소탐방,제주특별자치도 서귀포시,064-760-3946,http://www.jejuflowerfestival.com/,,제주특별자치도 서귀포시 표선면 녹산로 381-15,제주특별자치도 서귀포시 표선면 가시리 3149-33,33.383096,126.736285
1194,제25회 서귀포유채꽃국제걷기대회,제주월드컵경기장 광장 및 서귀포시 일원,2023-03-25,2023-03-26,유채꽃 걷기 대회,제주특별자치도 서귀포시+(사)한국체육진흥회,064-760-3320,https://cafe.daum.net/seogwipo-walking,,제주특별자치도 서귀포시 월드컵로 33,제주특별자치도 서귀포시 월드컵로 33,33.246219,126.509275
1195,문경찻사발축제,문경새재 오픈세트장,2023-04-29,2023-05-07,"전시행사 : 도예명장 특별전, 국제 교류전, 문경도자기 한상 차림전 등체험행사 : 찻사발 빚기·그리기, 찻사발원픽패스, 황금찻사발 찾기 등특별행사 : 생활자기·명품도자기 경매, 아름다운 찻자리, 사기장의 하루 등",경상북도 문경시청,054-550-6395,http://www.sabal21.com,,경상북도 문경시 문경읍 새재로 1037,경상북도 문경시 문경읍 상초리 72,36.77071342,128.0739524
1199,2023청도소싸움축제,청도소싸움경기장,2023-04-14,2023-04-16,전통소싸움대회 및 공연행사,청도소싸움축제추진위원회,054-370-6376,http://www.청도소싸움.kr,,경상북도 청도군 화양읍 남성현로 348,경상북도 청도군 화양읍 삼신리 693-2,35.6867346,128.7251449
1200,제15회 청도유등제,청도천둔치,2023-06-03,2022-06-03,유등 점등 및 무대+체험+전시 행사 등,청도유등제봉행위원회,054-372-6534,https://www.cheongdo.go.kr/open.content/tour/festival/others/,,,경상북도 청도군 화양읍 송북리 98-3,35.65498121,128.7372391
1201,2023청도반시축제,청도야외공연장,2023-10-13,2023-10-15,청도반시전시판매행사 및 공연,청도반시축제추진위원회,054-370-6376,http://www.청도반시축제.kr,,경상북도 청도군 화양읍 청려로 1846,경상북도 청도군 화양읍 동천리 457,35.64838523,128.7186823
1202,제30회 물왕예술제(산현공원),산현공원,2023-05-05,2023-05-07,"물왕예술제(청년예술가 공연, 음악 국악공연)",경기도 시흥시청,031-310-6730,,,경기도 시흥시 목감남서로15,경기도 시흥시 조남동 670,37.375454,126.8511808
1203,제30회 물왕예술제(비둘기공원),비둘기공원,2023-05-12,2023-05-14,"물왕예술제(평면예술, 야외통합전시, 시민참여예술, 아트페스티벌)",경기도 시흥시청,031-310-6730,,,,경기도 시흥시 은행동 551,37.44211319,126.7943282
1204,제30회 물왕예술제(배곧생명공원),배곧생명공원,2023-05-13,2023-05-14,"물왕예술제(대중예술, 무용공연)",경기도 시흥시청,031-310-6730,,,경기도 시흥시 배곧2로 25,경기도 시흥시 정왕동 2506,37.37141025,126.7214786
1205,지구촌 예술축제,배곧생명공원,2023-05-12,2023-05-12,경기예총 지구촌 예술축제,경기도 시흥시청,031-310-6730,,,경기도 시흥시 배곧2로 25,경기도 시흥시 정왕동 2506,37.37141025,126.7214786
1206,2023년 은계호수공원 가을콘서트,은계호수공원,2023-10-07,2023-10-08,시흥예총,경기도 시흥시청,031-310-6731,,,,경기도 시흥시 계수동 716,37.4452555,126.8065816
1221,지구촌 어울림 축제,성남시청 광장 일대,2023-05-21,2023-05-21,세계 문화 전시 체험 및 문화다양성 인식개선 홍보,경기도 성남시청,,,,경기도 성남시 중원구 성남대로 997,경기도 성남시 중원구 여수동 200,37.42017754,127.12628
1222,용연음악회,용연 구름다리 일원,2023-06-03,2023-06-03,클래식 및 국악 공연+민속보존회 풍물놀이+용담동 주민 기타공연 등,제주특별자치도 제주시청 문화예술과,,,,,제주특별자치도 제주시 용담2동 2581,0.0,0.0
1223,한여름밤의 예술공연,탑동해변공연장,2023-07-27,2023-08-02,도내 예술단체 공연(댄스·노래 등),제주특별자치도 제주시청 문화예술과,,,,제주특별자치도 제주시 중앙로 2,,0.0,0.0
1224,아트페스타인제주,탐라문화광장+산지천 일대,2023-10-13,2023-10-22,도내외 미술작가 실내외 전시+시민참여 특별전시 프로그램,제주특별자치도 제주시청 문화예술과,,,,,제주특별자치도 제주시 일도1동 1146-22,0.0,0.0
1225,울산옹기축제,울주군 외고산옹기마을일원,2023-05-05,2023-05-07,웰컴투옹기마을(옹기주제전시+창작공연+옹기토크+옹기테마거리등),(재)울주문화재단,052-204-0355,https://www.onggi.or.kr,,울산광역시 울주군 온양읍 외고산3길 36,울산광역시 울주군 온양읍 고산리 501-18,35.435069,129.2795088
1232,제34회 화도진축제,동인천역북광장,2023-05-19,2023-05-20,구한말 인천 앞바다 해안 경계를 위해 설치한 화도진을 배경으로한 대표 군영축제,인천광역시 동구청,032-770-6923,http://www.icdonggu.go.kr/open_content/culture/event/festival.jsp,화도진공원+수도국산달동네박물관+배다리헌책방거리,인천광역시 동구 참외전로 125 (동인천역 광장),인천광역시 동구 송현동 70-10,37.47664907,126.6324297
1233,대천해수욕장 조개구이 한마당,충청남도 보령시 머드테마파크 일원,2023-05-27,2023-05-29,"조개구이 시식체험, 각종 무대행사 등",충청남도 보령시,041-933-7051,,,충청남도 보령시 머드로 123,충청남도 보령시 신흑동 2267-3,36.31554012,126.5108563
1234,제2회 보령AMC모터페스티벌,충청남도 보령시 머드테마파크 일원,2023-05-27,2023-05-29,"튜닝카 전시, 짐카나 대회, 드리프트 쇼런 등",충청남도 보령시,041-939-3006,,,충청남도 보령시 주포면 대학길 106,충청남도 보령시 주포면 관산리 290-1,36.40350777,126.5795708
1235,제26회 보령머드축제,충청남도 보령시 대천해수욕장 일원,2023-07-21,2023-08-06,"머드체험존 등 체험행사, 전시판매 홍보행사, 공연행사 등",충청남도 보령시,041-930-1525,http://www.mudfestival.or.kr,,충청남도 보령시 고잠2길 55,충청남도 보령시 신흑동 2283-1,36.31509639,126.5128975
1238,제93회 춘향제,광한루원+요천로 일원,2023-05-25,2023-05-29,춘향제향+춘향선발대회+춘향국악대전+관광지 홍보+다양한 공연 등,전라북도 남원시청,063-620-5783,,,전라북도 남원시 요천로 1447,전라북도 남원시 천거동 78,35.40413057,127.380504
1239,지리산 바래봉 철쭉제,지리산허브밸리 일원,2023-04-22,2023-05-21,산신제+바래봉 철쭉+지역 농특산품 홍보 등,전라북도 남원시 운봉읍,063-635-0301,,,전라북도 남원시 운봉읍 바래봉길 214,전라북도 남원시 운봉읍 용산리 446-3,35.43509151,127.5486169
1244,구미 독서문화 축제,구미시립도서관 + 형곡공원,2023-10-01,2023-10-31,전시+특강+체험+공연,경상북도 구미시청,054-480-4674,,,경상북도 구미시 경은로 85,,36.1137978,128.3352215
1245,비산나루터 문화축제,비산나루터 체육공원,2023-10-01,2023-10-31,공연+체험+플리마켓,비산동체육회,,,,,경상북도 구미시 비산동 1,36.12390586,128.3839118
1246,구미한가위 전통연희축제,금오산도립공원 분수광장,2023-09-29,2023-09-30,공연+체험,(사)한국전통연희단체 총연합회 경상북도지회,054-457-1082,,,,경상북도 구미시 남통동 289-3,36.11125615,128.3139126
1247,구미 청춘 금오천 2.4km,금오천,2023-03-31,2023-04-04,공연+체험+마켓,경상북도 구미시청,054-451-0414,,,,경상북도 구미시 남통동 414-34,36.12217559,128.3224418
1248,구미 라면축제,구미캠핑장 및 구미역(원평동)일원,2023-11-10,2023-11-12,공연+푸드존,경상북도 구미시청,054-480-2652,,,경상북도 구미시 원남로 8길 13,,36.12629339,128.3309974
1250,제16회 마포나루 새우젓축제,월드컵공원 평화의 광장 일원,2023-10-20,2023-10-22,개장식+기념식+문화행사+체험행사+판매장터 운영 등,서울특별시 마포구청,02-3153-8353,http://www.mapo.go.kr/site/maponarusf/home,,서울특별시 마포구 월드컵로 243-60(성산동),서울특별시 마포구 성산동 390-1,0.0,0.0
1251,신년해맞이축제,하늘공원,2024-01-01,2024-01-01,일출감상,서울특별시 마포구청,02-3153-8353,,,서울특별시 마포구 하늘공원로 95,서울특별시 마포구 상암동 481-72,0.0,0.0
1252,제16회_정남진_장흥_물축제,탐진강+편백숲우드랜드,2023-07-29,2023-08-06,살수대첩+지상최대의물싸움+황금물고기를잡아라+수중줄다리기+워터락풀파티+별밤수다쟁이+지상최대의워터붐,물축제추진위원회,061-860-5771,https://www.jangheung.go.kr/festival,,,전라남도 장흥군 장흥읍 건산리 805,0.0,0.0
1253,제6회_회령포_문화축제,회령진성+회진항_물양장,2023-08-31,2023-09-02,삼도수군통제사_입성식+시가행렬+풍물패길놀이+씻김굿+12척배_해상퍼레이드+저잣거리_음식부스_운영,회령포 문화축제 추진위원회,061-860-5764,https://www.jangheung.go.kr/festival,,,전라남도 장흥군 장흥읍 건산리 805,0.0,0.0
1254,제4회 新송도해변축제,송도 달빛공원 일원,2023-07-29,2023-08-06,물놀이 및 인공해변 체험 축제,인천광역시 연수구청,032-749-7332,,,,인천광역시 연수구 송도동 1,37.39543995,126.6593123
1255,제11회 연수 능허대 문화축제,송도 달빛공원 일원,2023-10-06,2023-10-08,능허대 소재 체험프로그램+문화공연 등,인천광역시 연수구청,032-749-7332,,,,인천광역시 연수구 송도동 1,37.39543995,126.6593123
1256,서울장미축제,서울장미공원,2023-05-13,2023-05-28,장미 개화시기에 맞춰 중랑천 둔치와 수림대 공원에서의 특설 무대 공연과 포토존 및 조각전 등 5.15km 장미터널을 활용한 서울 대표 문화축제,중랑문화재단,02-3407-6531,https://www.jungnang.go.kr/seoulRose/main.do?menuNo=201121+,,서울특별시 중랑구 중랑천로 332,서울특별시 중랑구 묵동 378,37.6148099,127.073526
1257,용마폭포 문화예술축제,용마폭포공원,2023-10-07,2023-10-08,클래식·성악 등 가을 분위기에 어울리는 공연+각종 체험행사 등,중랑문화재단,02-3407-6532,https://www.jnfac.or.kr/festival/yongma_info.html,,서울특별시 중랑구 용마산로 250-12,서울특별시 중랑구 면목동 산 1-4,37.573335,127.089125
1258,청남대 영춘제,청남대 일원,2023-04-22,2023-05-07,문화예술공연+미술작품 기획전+푸드존+와인페스티벌+지역특산물 홍보 판매장 등,충청북도,043-257-5080,https://chnam.chungbuk.go.kr/index.donone,,충청북도 청주시 상당구 문의면 청남대길 646,충청북도 청주시 상당구 문의면 신대리 산26-1,36.4622489,127.490095
1259,충주DIVE페스티벌,"탄금호조정경기장, 중앙탑공원 일원",2023-06-15,2023-06-18,수상공연+버스킹+매직저글링+마임+한국무용 등,충청북도 충주시청,043-850-6720,http://cjlake.kr/2022/,,충청북도 충주시 중앙탑면 중앙탑길 150,충청북도 충주시 중앙탑면 탑평리 137,37.02308381,127.8619248
1260,속리산 신화여행축제,"속리산 잔디공원, 법주사 일원",2023-06-09,2023-06-11,천왕봉 산신제+영신행사+비빔밥 파티+팔상전탑돌이+민속경연대회 등,충청북도 보은군청,043-540-3372,https://www.tourboeun.go.kr/prog/tursmCn/tour/sub01_06/view.do?cntno=106,,충청북도 보은군 보은읍 군청길 38,충청북도 보은군 보은읍 이평리 45,36.48970363,127.7297482
1261,보은대추축제,뱃들공원 및 속리산 일원,2023-10-13,2023-10-22,예술공연+전국캠핑대회+피크닉존+버스킹공연+민속소싸움대회+속리산 단풍가요제 등,충청북도 보은군청,043-540-3392,http://www.boeunjujube.com/,,충청북도 보은군 보은읍 군청길 38,충청북도 보은군 보은읍 이평리 45,36.48970363,127.7297482
1262,지용제,지용생가 등 구읍 일원,2023-09-07,2023-09-10,지용문학상 시상식+정지용 음악회 전국시조경창대회+정지용시 낭송대회 등,"충청북도 옥천군청, 옥천문화원",043-733-5588,http://gy-festival.okcc.or.kr/,,충청북도 옥천군 옥천읍 관성로 35,충청북도 옥천군 옥천읍 문정리 476,36.3020368,127.5731251
1263,영동포도축제,영동레인보우힐링관광지 일원,2023-08-01,2023-08-01,포도밟기체험+포도따기체험+추풍령가요제+난전시 등,충청북도 영동군청,043-740-3214,,,충청북도 영동군 영동읍 영동황간로 122,충청북도 영동군 영동읍 매천리 313,36.16401625,127.7819484
1264,증평인삼골축제,보강천미루나무숲 일원,2023-10-01,2023-10-01,홍삼포크삼겹살대잔치+인맥파티+장뜰두레농요시연+인삼골장사씨름대회 등,증평문화원,043-835-4112,http://www.jeungpyeongfestival.com/,,충청북도 증평군 증평읍 문화로 7,충청북도 증평군 증평읍 증평리 563,36.78038628,127.5885595
1265,생거진천농다리축제,농다리 일원,2023-05-26,2023-05-28,상여다리 건너기+농다리 놓기 재연+농사철 다리밟기+농다리 씨름대회 등,진천문화원,043-539-3603,https://www.jincheon.go.kr/site/culture/sub.do?menukey=3830,,충청북도 진천군 문백면 농다리로 1032-11,충청북도 진천군 문백면 구산동리 135,36.82909824,127.4908257
1266,괴산고추축제,유기농엑스포광장 일원,2023-09-01,2023-09-01,고추장담그기체험 깜짝고추경매 황금고추를찾아라 속풀이고추난타 등,충청북도 괴산군청,043-830-3463,https://www.goesanfestival.com/,,충청북도 괴산군 괴산읍 임꺽정로 90,충청북도 괴산군 괴산읍 서부리 125,36.81574898,127.787533
1267,음성품바축제,음성설성공원,2023-05-17,2023-05-21,전국 품바 길놀이 퍼레이드 글로벌 품바 래퍼 경연대회 품바뮤지컬 품바왕 선발대회 등,음성군축제추진위원회,043-871-3402,https://pumba.kr/,,충청북도 음성군 음성읍 설성공원길 28,충청북도 음성군 음성읍 읍내리 817-242,36.93278892,127.6910199
1268,단양온달문화축제,온달관광지 및 단양읍 일원,2023-10-06,2023-10-09,온달장군출정식+온달평강퍼레이드+국악버스킹+고구려복식체험 등,온달문화축제추진위원회,043-420-2552,https://www.danyang.go.kr/ondal/628,,충청북도 단양군 단양읍 중앙1로 10,충청북도 단양군 단양읍 별곡리 300,36.98455598,128.3663012
1269,담양대나무축제,죽녹원 및 관방제림 일원,2023-05-03,2023-05-07,대나무 관련 전시+체험+공연+판매 등,전라남도 담양군,061-380-3152,www.bamboofestival.co.kr,,전라남도 담양군 담양읍 메타프로방스 1길 17,전라남도 담양군 담양읍 학동리 586-1,35.32260525,127.0018114
1270,담양산타축제,담양 원도심 및 메타프로방스 일원,2023-12-23,2023-12-25,크리스마스거리조성+크리스마스마켓 운영 등,전라남도 담양군,061-380-3152,,,전라남도 담양군 담양읍 메타프로방스 1길 17,전라남도 담양군 담양읍 학동리 586-1,35.32260525,127.0018114
1271,추월산벚꽃축제,용면 추월산광장 일원,2023-04-08,2023-04-09,벚꽃노래자랑+특산품판매 등,전라남도 담양군,061-380-3152,,,전라남도 담양군 용면 추월산로 369,전라남도 담양군 용면 추성리 478-1,35.36483985,126.9872053
1272,창평전통음식문화축제,창평슬로시티 일원,2024-10-01,2024-10-30,슬로푸드전시+체험+판매 등,전라남도 담양군,061-380-3152,,,전라남도 담양군 창평면 돌담길 56-24,전라남도 담양군 창평면 창평리 113-1,35.23525084,127.017861
1273,가로수사랑음악회,메타세쿼이아길 일원,2023-11-01,2023-11-30,지역출신가수공연+특집라디오공개방송 등,전라남도 담양군,061-380-3152,,,전라남도 담양군 담양읍 지침3길 7-5,전라남도 담양군 담양읍 지침리 132-28,35.31617363,126.9840063
1274,고서포도축제,고서면 증암천변 일원,2023-08-01,2023-08-30,특산품 홍보+판매,전라남도 담양군,061-380-3152,,,전라남도 담양군 고서면 가사문학로 325,전라남도 담양군 고서면 동운리 583-4,35.22370105,126.9729391
1275,춘장대해수욕장 여름문화예술축제,춘장대해수욕장 중앙광장,2023-07-01,2023-07-01,한여름밤의 트롯이야기+춘장대 시네마+춘장대 푸파 페스티벌 등,충청남도 서천군,041-950-4016,http://tour.seocheon.go.kr,,충청남도 서천군 서면 춘장대길 20,충청남도 서천군 서면 도둔리 1319,36.16334922,126.5243355
1276,자연산 광어.도미 축제,서면 마량포구 일원,2023-05-13,2023-05-28,맨손으로 광어잡기 체험+기념공원에서 보물찾기,서면개발위원회,041-950-4016,http://tour.seocheon.go.kr,,충청남도 서천군 서면 서인로 56,충청남도 서천군 서면 마량리 339-6,36.1293642,126.5036472
1277,마량포 해넘이.해돋이 축제,서면 마량포구 일원,2023-12-01,2024-01-01,새해 떡국나눔행사+불꽃놀이+버스킹 공연+소원등 달기,충청남도 서천군,041-950-4016,http://tour.seocheon.go.kr,,충청남도 서천군 서면 서인로 56,충청남도 서천군 서면 마량리 339-6,36.1293642,126.5036472
1278,홍원항 자연산 전어.꽃게 축제,서면 홍원항 일원,2023-09-01,2023-09-01,맨손으로 전어 잡기 체험+추억의 놀이 체험+숨겨진 보물을 찾아라+비눗방울 놀이 등,홍원항마을축제추진위원회,041-950-4016,http://tour.seocheon.go.kr,,충청남도 서천군 서면 홍원길 130-3,충청남도 서천군 서면 도둔리 1222-7,36.1588618,126.4992204
1279,한산모시문화제,한산모시관 일원,2023-06-09,2023-06-11,한산모시를 주제로 하는 다양한 프로그램 운영,충청남도 서천군,041-950-4256,www.hansanmosi.kr/,,충청남도 서천군 한산면 충절로 1089,충청남도 서천군 한산면 지현리 60-1,36.0799445,126.7987047
1280,서천철새여행,조류생태전시관 일원,2023-11-01,2023-11-01,철새 탐조 및 철새 관련 문화행사,충청남도 서천군,041-950-4256,http://tour.seocheon.go.kr,,충청남도 서천군 마서면 장산로 916,충청남도 서천군 마서면 도삼리 59,36.02280046,126.7426918
1281,서천군 동백꽃 주꾸미 축제,서면 마량포구 일원,2023-03-18,2023-04-02,주꾸미 잡기 체험+각종 체험 프로그램 등,충청남도 서천군,041-950-4016,http://tour.seocheon.go.kr,,충청남도 서천군 서면 서인로 56,충청남도 서천군 서면 마량리 339-6,36.1293642,126.5036472
1282,광양매화축제,다압면 섬진마을 일원,2023-03-10,2023-03-19,공연+경연+체험+전시+판매+부대행사,전라남도 광양시청,061-797-2721,http://www.gwangyang.go.kr/tour_culture,,전라남도 광양시 시청로 33,전라남도 광양시 중동 1313,34.94063056,127.6959675
1283,광양천년동백축제,옥룡면 동백림 일원,2023-03-25,2023-03-26,공연+경연+체험+전시+판매+부대행사,전라남도 광양시청,061-797-2603,http://www.gwangyang.go.kr/tour_culture,,전라남도 광양시 옥룡면 신재로 624,전라남도 광양시 옥룡면 운평리 262,35.01695051,127.6192703
1284,백운산국사봉철쭉제,옥곡면 국사봉랜드,2023-04-01,2023-04-01,공연+경연+체험+전시+판매+부대행사,전라남도 광양시청,061-797-4233,http://www.gwangyang.go.kr/tour_culture,,전라남도 광양시 옥곡면 옥진로 665-1,전라남도 광양시 옥곡면 수평리 131-3,34.98936299,127.7001825
1285,2023 관악강감찬축제,낙성대공원+별빛내린천,2023-10-13,2023-10-15,고려 명장 강감찬 장군의 호국정신을 기리고자 개최되는 서울의 대표적인 역사문화축제이자_관악구민이 함께 만들고 즐기는 축제,서울특별시 관악구청,02-828-5763,https://ggcfest.com/,,서울특별시 관악구 낙성대로 77,서울특별시 관악구 봉천동 738-329,37.47197208,126.959371
1286,광양전어축제,진월면 망덕포구 일원,2023-09-01,2023-09-01,공연+경연+체험+전시+판매+부대행사,전라남도 광양시청,061-797-3679,http://www.gwangyang.go.kr/tour_culture,,전라남도 광양시 진월면 망덕길 265,전라남도 광양시 진월면 망덕리 12-1,34.97164706,127.7587907
1287,광양숯불구이축제,광양읍 서천변 일원,2023-10-01,2023-10-01,공연+경연+체험+전시+판매+부대행사,전라남도 광양시청,061-797-4903,http://www.gwangyang.go.kr/tour_culture,,전라남도 광양시 광양읍 남등길 6,전라남도 광양시 광양읍 칠성리 946,34.9733415,127.5810489
1288,섬 수선화 축제,지도읍 선도리 일원,2023-03-30,2023-04-09,자전거투어+꽃팔찌만들기체험+꽃차시음+체험프로그램+전시공연행사,전라남도 신안군청,,https://tour.shinan.go.kr/,,전라남도 신안군 지도읍 선도길 72-26,,0.0,0.0
1289,섬 튤립축제,1004섬 튤립홍매화정원(임자도대광해변일원),2023-04-07,2023-04-16,특별기획전+미디어아트상설전+나만의가훈갖기+튤립식재체험행사,전라남도 신안군청,061-240-4041,https://tour.shinan.go.kr/,,전라남도 신안군 임자면 대광해수욕장길 179,,35.10291276,126.0725117
1290,전국 새우란 축제,1004뮤지엄파크,2023-04-14,2023-04-23,공연행사+새우란네일아트+나만의티셔츠만들기+목공예체험,전라남도 신안군청,,https://tour.shinan.go.kr/,,전라남도 신안군 자은면 자은서부2길 508-65,,0.0,0.0
1291,흑산홍어축제,흑산도,2023-05-05,2023-05-06,홍어 시식회+홍어요리 전시관+풍어제+흑산도아가씨노래자랑+주민윷놀이대회+홍어OX퀴즈,전라남도 신안군청,,https://tour.shinan.go.kr/,,,전라남도 신안군 흑산면 예리 173-55,0.0,0.0
1292,퍼플섬 라벤더 축제,안좌면 박지도 일원,2023-05-19,2023-06-06,라벤더향만들기+땅콩아트+꽃길버스킹+라벤더아이스크림판매+유정란판매,전라남도 신안군청,,https://tour.shinan.go.kr/,,전라남도 신안군 안좌면 소곡두리길 257-35,,0.0,0.0
1306,희망달서 큰잔치,달서아트센터,2023-10-13,2023-10-15,희망가득체험부스 + 다문화 어울림제 + 축하 콘서트 등,(재)달서문화재단,053-584-9711,http://www.dscf.or.kr,,대구광역시 달서구 문화회관길 160(장기동),대구광역시 달서구 장기동 722-1,35.84342427,128.5228246
1307,영암왕인문화축제,왕인박사유적지 일원,2023-03-30,2023-04-02,6개 부문 57종 프로그램 운영,전라남도 영암군청,061-470-2259,www.왕인문화축제.kr,,전라남도 영암군 군서면 왕인로 440,전라남도 영암군 군서면 동구림리 산 17,34.75653038,126.6291211
1308,제8회 사천비토섬별주부전축제,서포면,2023-03-31,2023-04-01,지신밟기+용왕제+경창+사물놀이+국악공연,별주부전축제추진위원회,,,,경상남도 사천시 거북길 455,경상남도 사천시 서포면 비토리 14-13,0.0,0.0
1309,제25회 사천와룡문화제,사천시청 광장 일원,2023-04-28,2023-04-30,합동공연+가요제+경창+백일장+웅변,경상남도 사천시청,,,,경상남도 사천시 용현면 시청로 77,,0.0,0.0
1310,선진리성벚꽃축제,선진리성,2023-04-01,2023-04-01,국궁활쏘기+테라리움+체험+전시+악기연주+노래자랑,선진리성벚꽃축제추진위원회,,,,경상남도 사천시 선진안길 83-28,경상남도 사천시 용현면 선진리 770,0.0,0.0
1311,사천읍성 문화축제,사천읍,2023-09-22,2023-09-23,미정,사천읍성문화축제추진위원회,,,,경상남도 사천시 사천읍 수양공원길 51,,0.0,0.0
1312,사천예술제,사천문화예술회관 대공연장,2023-11-04,2023-11-04,문화공연,한국예총사천시지부,,,,경상남도 사천시 삼천포대교로 471,,0.0,0.0
1313,천령문화제,함양상림공원일원,2023-05-05,2023-05-09,고유제+축하공연+버스킹공연+학술대회+야간 빛축제+문화예술단체 전시,경상남도 함양군,055-960-4510,,,,경상남도 함양군 함양읍 교산리 1047-2,35.52372642,127.7218597
1314,함양연암문화제,안의면 오리숲일원,2023-08-25,2023-08-26,학술대회+연암역사 퀴즈대회+연암 부임행차+연암제례+축하공연+군민노래자랑,경상남도 함양군,055-960-4510,,,,경상남도 함양군 안의면 금천리 241,35.63129664,127.812171
1315,제24회음성품바축제,설성공원및꽃동네일원,2023-05-17,2023-05-21,"글로벌품바래퍼경연대회, 품바라이브 등 공연 및 체험",음성군 축제추진 위원회,043-873-2241,http://www.pumba21.com/,문화관광축제및충청북도최우수축제,충청북도 음성군 음성읍 예술로 102,충청북도 음성군 음성읍 읍내리 366-17,36.93152313,127.6806296
1316,제42회설성문화제,설성공원일원,2023-10-12,2023-10-15,"민속예술한마당놀이, 군민노래자랑 등 각종 체험",음성군 축제추진 위원회,043-872-4084,http://eumseong.kccf.or.kr,4년만에대면개최,충청북도 음성군 음성읍 수정로 38,충청북도 음성군 음성읍 읍내리 446-1,36.93427623,127.6906949
1317,2023 태화강마두희축제,울산 중구 성남동 일원,2023-06-23,2023-06-25,큰줄다리기+부대행사,태화강마두희축제추진위원회,052-290-3662,,,울산광역시 중구 시계탑거리 4,,35.55511722,129.3216061
1318,2023년 외솔한글한마당,외솔기념관 및 중구 원도심 일원,2023-10-06,2023-10-09,한글을 주제로 한 전시+체험+경연+공연,ubc 울산방송,052-290-3642,,,울산광역시 중구 시계탑거리 4,,35.55511722,129.3216061
1319,2023 문화의거리 현대미술제,울산 중구 문화의거리,2023-05-13,2023-05-21,갤러리+거리 미술작품 전시,경상일보,052-290-3666,,,울산광역시 중구 시계탑거리 4,,35.55511722,129.3216061
1320,2023년 울산병영3.1만세운동 제23회 재현행사,울산 중구 병영 일원,2023-04-05,2023-04-06,위령제+추모제+삼일만세운동재현행사+부대행사,중구문화원,052-290-3664,,,울산광역시 중구 병영성13길 2,울산광역시 중구 서동 311 병영초등학교,35.57492612,129.3454467
1321,제10회 서울동화축제,어린이대공원,2023-05-06,2023-05-07,어린이를 위한 동화 축제 개최,서울특별시 광진구청,02-450-7596,,,서울특별시 광진구 능동로216,,0.0,0.0
1322,제5회 명품한강 장미축제,자양3동 현대6차~8차 아파트사이,2023-05-20,2023-05-20,장미를 테마로 한 자양3동 주민이 화합하여 만드는 마을축제,자양3동문화행사위원회,02-450-1803,,,서울특별시 광진구 자양번영로3길 66,,0.0,0.0
1323,제5회 홍천산나물축제,강원도 홍천군 도시산림공원 토리숲일원,2023-04-28,2023-04-30,무대행사+홍천 산나물 판매+체험행사+산양삼 홍보 등,강원도 홍천군청,033-439-5853,https://www.hccf.or.kr/Home/H10000/H10600/html,,,강원도 홍천군 홍천읍 갈마곡리 497,0.0,0.0
1324,진주남강유등축제,진주성 + 진주남강일원,2023-10-08,2023-10-22,초혼점등+소망등 달기+추억의 유등띄우기+창작등 만들기+한국등 및 세계뭉풀등 전시+불꽃놀이+항공미디어아트 드론라이트 쇼+체험행사 및 부대행사,경상남도 진주시청+진주문화예술재단,055-755-9111,http://www.yudeung.com,,경상남도 진주시 남강로 626,경상남도 진주시 본성동 415,0.0,0.0
1325,개천예술제,진주시 일원,2023-10-13,2023-10-22,서제+개제식+가장행렬+예술경연+각종전시+종야축제+예술문화행사+진주대첩 승전기념행사 등,경상남도 진주시청 + (사)한국예총 진주지회,055-752-0111,http://www.gaecheonart.com,,경상남도 진주시 남강로 626,경상남도 진주시 본성동 415,0.0,0.0
1326,코리아드라마페스티벌,경남문화예술회관+경상국립대학교+장대동 남강둔치 일원,2023-10-13,2022-10-22,코리아드라마어워즈+ KDF콘서트+ 드라마영상국제포럼+ 부대행사 등,(사)코리아드라마페스티벌 조직위원회,055-755-2363,http://www.kdfo.org,,,경상남도 진주시 장대동 356-17,0.0,0.0
1327,진주논개제,진주성 일원,2023-05-05,2023-05-08,헌다례 및 신위순행+ 의암별제+ 실경역사뮤지컬 의기논개+ 전통놀이 체험 등,경상남도 진주시청,055-795-3213,http://jjcc.or.kr/,,경상남도 진주시 남강로 626,경상남도 진주시 본성동 415,0.0,0.0
1328,진주 M2(뮤직&미디어)페스티벌,진주시 망경동 남강둔치(중앙광장 아래),2023-08-04,2023-08-06,"수상무대공연(대학동아리팀 및 가수초청공연)+미디어아트쇼+수상체험 프로그램(카약+패들보트+드래곤보트), 푸드존 등 부대행사",㈜KNN,055-273-1058,http://jinjumusic.com/index.php,,경상남도 진주시 강남로 320 아래 둔치,경상남도 진주시 망경동 110-1 아래 둔치,0.0,0.0
1331,진주국제농식품박람회,진주종합경기장,2023-11-08,2023-11-12,테마별 전시관+목장체험+농업실내체험+해외문화 특별전시+해회시장판로개척 수출상담회+토종농산물종자전시회 등 부대행사,경상남도청+경상남도 진주시청,,,,경상남도 진주시 동진로 415,경상남도 진주시 충무공동 8,0.0,0.0
1335,보수동책방골목문화축제,보수동책방골목 및 문화관,2023-10-13,2023-10-15,책읽는마을 심포지엄+공연행사+체험 등,보수동 책방골목 번영회,051-253-7220,http://www.bosubook.com/,,부산광역시 중구 흑교로46번길 11,부산광역시 중구 보수동1가 119-6,35.10362715,129.0261809
1336,부산국제영화제 전야제,BIFF광장일원,2023-10-04,2023-10-04,축하공연,(사) 부산국제영화제,051-709-2091,https://www.biff.kr,,부산광역시 중구 비프광장로 36,부산광역시 중구 남포동5가 18-1,35.09862035,129.0287588
1337,부산자갈치축제,자갈치시장 및 유라리광장 일원,2023-10-12,2023-10-15,개막식+길놀이+체험프로그램 등,(사)부산자갈치문화관광축제위원회,051-243-9363,http://www.ejagalchi.com/,,부산광역시 중구 자갈치해안로 52,부산광역시 중구 남포동4가 37-1,35.0966394,129.0305933
1338,광복로겨울빛트리축제,광복로 및 중구 관내 일원,2023-12-01,2024-01-31,일루미네이션 크리스마스트리장식+성탄음악행사+시민참여행사+점등식 등,부산광역시 중구청,051-464-0112,,,부산광역시 중구 광복중앙로 2,부산광역시 중구 광복동2가 6-5,35.0995432,129.0314651
1339,2023 해운대카운트다운&해맞이축제,"해운대해수욕장, 구남로 등",2023-01-01,2023-01-01,카운트다운 행사+해맞이 행사+부대 프로그램 등,부산광역시 해운대구청,051-749-4062,,,부산광역시 해운대구 중동2로 11,부산광역시 해운대구 중동 1378-95,35.16313992,129.1635303
1340,제38회 해운대 달맞이온천축제,해운대해수욕장,2023-02-03,2023-02-05,길놀이 행사+달집태우기+개막행사+무대공연 등,사단법인 해운대지구발전협의회,051-749-4062,,,부산광역시 해운대구 중동2로 11,부산광역시 해운대구 중동 1378-95,35.16313992,129.1635303
1341,제18회 해운대 모래축제,"해운대 해수욕장, 구남로",2023-05-19,2023-05-22,모래작품 전시+체험프로그램+플라워카펫 등,부산광역시 해운대구청,051-749-4062,,,부산광역시 해운대구 중동2로 11,부산광역시 해운대구 중동 1378-95,35.16313992,129.1635303
1342,제18회 국제매직페스티벌,"해운대해수욕장,구남로",2023-07-01,2023-07-01,매직버스킹공연+무대공연+경연대회 등,부산국제매직페스티벌조직위원회,051-749-4061,,,부산광역시 해운대구 중동2로 11,부산광역시 해운대구 중동 1378-95,35.16313992,129.1635303
1343,제7회 반송한마음축제,반송동 일원,2023-07-01,2023-07-01,개막행사+무대공연 등,반송한마음축제위원회,051-749-4061,,,부산광역시 해운대구 중동2로 11,부산광역시 해운대구 중동 1378-95,35.16313992,129.1635303
1344,제27회 부산바다축제,해운대해수욕장,2023-08-01,2023-08-01,개막행사+무대공연 등,부산광역시,051-749-4061,,,부산광역시 해운대구 중동2로 11,부산광역시 해운대구 중동 1378-95,35.16313992,129.1635303
1345,송정해변축제,송정해수욕장 일원,2023-08-01,2023-08-01,개막행사+무대공연 등,송정축제조직위원회,051-749-4061,,,부산광역시 해운대구 중동2로 11,부산광역시 해운대구 중동 1378-95,35.16313992,129.1635303
1346,달맞이언덕 인문학 축제,"어울마당, 추리문학관 등",2023-10-01,2023-10-01,인문학 강연+무대공연 등,해운대포럼,051-749-4064,,,부산광역시 해운대구 중동2로 11,부산광역시 해운대구 중동 1378-95,35.16313992,129.1635303
1347,제20회 담안골 문화축제,반송동 일원,2023-10-01,2023-10-01,개막행사+무대공연 등,반송지구발전협의회,051-749-4061,,,부산광역시 해운대구 중동2로 11,부산광역시 해운대구 중동 1378-95,35.16313992,129.1635303
1348,장산제,장산 일원,2023-10-01,2023-10-01,개막행사+무대공연 등,해운대를 사랑하는 모습,051-749-4061,,,부산광역시 해운대구 중동2로 11,부산광역시 해운대구 중동 1378-95,35.16313992,129.1635303
1349,제11회 재송포축제,재송동 일원,2023-10-01,2023-10-01,개막행사+무대공연 등,재송발전협의회,051-749-4064,,,부산광역시 해운대구 중동2로 11,부산광역시 해운대구 중동 1378-95,35.16313992,129.1635303
1350,동백섬문화관광축제,동백섬 일원,2023-10-01,2023-10-01,최치원추념헌공다례+기로연진다례 등,해운대문화예술원,051-749-4064,,,부산광역시 해운대구 중동2로 11,부산광역시 해운대구 중동 1378-95,35.16313992,129.1635303
1351,제10회 수영강변축제,수영강시민공원,2023-10-01,2023-10-01,개막행사+무대공연 등,수영강변축제위원회,051-749-4061,,,부산광역시 해운대구 중동2로 11,부산광역시 해운대구 중동 1378-95,35.16313992,129.1635303
1352,제18회 부산불꽃축제,"동백섬, 마린시티 일원",2023-11-01,2023-11-01,불꽃쇼+무대공연 등,부산광역시,051-749-4062,,,부산광역시 해운대구 중동2로 11,부산광역시 해운대구 중동 1378-95,35.16313992,129.1635303
1353,제10회 해운대 빛축제,"구남로, 해운대해수욕장, 등",2023-12-01,2023-12-01,빛시설물 전시+체험프로그램 등,부산광역시 해운대구청,051-749-4062,,,부산광역시 해운대구 중동2로 11,부산광역시 해운대구 중동 1378-95,35.16313992,129.1635303
1354,제36회 해운대북극곰축제,해운대해수욕장 일원,2023-12-01,2023-12-01,북극곰 수영대회+체험프로그램+무대공연 등,부산일보,051-749-4064,,,부산광역시 해운대구 중동2로 11,부산광역시 해운대구 중동 1378-95,35.16313992,129.1635303
1355,2024 카운트다운&해맞이 축제,해운대해수욕장 일원,2023-12-31,2024-01-01,카운트다운 행사+해맞이 행사+부대 프로그램 등,부산광역시 해운대구청,051-749-4062,,,부산광역시 해운대구 중동2로 11,부산광역시 해운대구 중동 1378-95,35.16313992,129.1635303
1356,상화문학제,수성못 상화동산+수성문화원,2023-05-19,2023-05-21,백일장+시낭송대회+문학강연+문학공연,수성문화원,053-768-0002,http://www.suseong.or.kr,,대구광역시 수성구 들안로16길 78,대구광역시 수성구 두산동 30,35.839227,128.618141
1357,천을산 해맞이,천을산 정상,2024-01-01,2024-01-01,"신년메세지, 해오름 퍼포먼스 등",대구광역시 수성구,053-666-2162,https://www.suseong.kr,천을산 해맞이 동산+고산초교,,대구광역시 수성구 가천동 산11-3,35.85169239,128.6950183
1358,제26회 무안연꽃추제,회산백련지 일원,2023-07-20,2023-07-23,아이스존+연자방+소방등 달기+연꽃 팥빙수 나눔잔치+연잎들고 연꽃길 걷기+연 공예체험 등,무안군축제추진위원회,061-450-5472,http://tour.muan.go.kr/,,전라남도 무안군 일로읍 백련로 333,전라남도 무안군 일로읍 복룡리 150,34.86008849,126.5298962
1359,제9회 무안황토갯벌축제,무안황토갯벌랜드 일원,2023-06-09,2023-06-11,풍요깃발퍼레이드+농게·낙지·운저리잡기 체험 등,무안군축제추진위원회,061-450-5472,http://tour.muan.go.kr/,,전라남도 무안군 해제면 용산길 140,전라남도 무안군 해제면 유월리 1-1,35.10332391,126.3319409
1360,제50회 지리산평화제,지리산 신선너들+산청공설운동장+성철공원,2023-10-10,2023-10-14,지리산 산신제+평화상 시상+민속행사+원혼 위령제,경상남도 산청군청,055-970-6401,https://www.sancheong.go.kr/tour/contents.do?key=2006,,경상남도 산청군 시천면 지리산대로 520,경상남도 산청군 시천면 중산리 519,35.293748,127.754118
1361,제47회 남명선비문화축제,한국선비문화연구원,2023-10-20,2023-10-21,남명제례+개막식+공연+경연+전시+체험행사,경상남도 산청군청,055-970-6401,https://www.sancheong.go.kr/tour/contents.do?key=2002,,경상남도 산청군 시천면 남명로240번길 33,경상남도 산청군 시천면 사리 900-27,35.276319,127.846049
1362,제17회 기산국악제전,기산국악당+동의보감촌,2023-09-22,2023-09-23,추모제+박헌봉 국악상 시상+국악한마당공연+전국국악경연대회,경상남도 산청군청,055-970-6401,https://www.sancheong.go.kr/tour/contents.do?key=2001,,경상남도 산청군 단성면 상동길 69,경상남도 산청군 단성면 사월리 1399,35.27616022,127.934248
1363,제15회 불교문화제전,성철공원,2023-10-14,2023-10-14,음악회+불교문화체험 및 전시,경상남도 산청군청,055-970-6401,https://www.sancheong.go.kr/tour/contents.do?key=6329,,,경상남도 산청군 단성면 묵곡리 949,35.277656,127.964971
1366,삼척정월대보름제,우체국일원,2023-02-03,2023-02-05,개막식+제례행사+문화재행사+민속놀이행사 등 9개분야 46종,강원도 삼척시청,033-573-2882,http://www.fullmoonfestival.or.kr/,"엑스포광장, 삼척 시내(척주로 일원), 삼척해수욕장 일원",강원도 강원도 삼척시청 엑스포로 45,강원도 강원도 삼척시청 성남동 1-5,37.43896231,129.160145
1367,삼척맹방유채꽃행사,근덕면 상맹방리 유채밭 일대,2023-04-07,2023-04-16,농축특산물 판매장 및 향토 먹거리장터 운영+유채꽃 사진전+유채꽃따라 걷기대회 등(코로나-19 확산방지로 행사취소),삼척맹방유채꽃축제위원회,033-570-3375,http://tour.samcheok.go.kr/03joy/02_03.jsp,"덕산해수욕장,맹방해수욕장",강원도 삼척시 근덕면 삼척로 3916-112(마을회관),강원도 삼척시 근덕면 상맹방리 215-1 외 30필지,37.40072352,129.2117828
1368,황영조 국제 마라톤 대회,엑스포광장~근덕면 일원,2023-05-21,2023-05-21,황영조 국제 마라톤 대회,강원일보,033-570-3813,,박물관+죽서루+해양레일바이크+해상케이블카+해신당공원 코스,강원도 강원도 삼척시청 엑스포로 45,강원도 강원도 삼척시청 성남동 1-5,37.43896231,129.160145
1369,삼척장미축제,삼척장미공원 일원,2023-05-20,2023-05-24,공연+먹거리+체험+기타,강원도 삼척시청,033-570-3082,,장미공원,강원도 강원도 삼척시청 오십천로 536,강원도 강원도 삼척시청 정상동 232,37.43501045,129.1752024
1370,삼척비치썸페스티벌,삼척해변 일원,2023-07-26,2023-07-30,공연+먹거리+체험+기타,강원도 삼척시청,033-570-3081,,삼척해변,강원도 강원도 삼척시청 테마타운길 19,강원도 강원도 삼척시청 갈천동 14,37.46667271,129.1705322
1371,삼척동해왕이사부축제,이사부광장 일원,2023-10-06,2023-10-08,공연+퍼레이드+체험+연계행사 등,강원도 삼척시청,033-570-3073,http://www.yisabu.com,삼척문화예술회관 광장 일대,강원도 강원도 삼척시 엑스포로 45,강원도 강원도 삼척시청 성남동 1-5,37.44988816,129.1656266
1372,삼척평생학습박람회 및 책축제,문화예술회관일원,2023-10-21,2023-10-22,개막식+평생학습유공자 포상+체험 홍보부스 운영+작품전시+공연 발표+책관련 행사 등,강원도 삼척시청,033-570-4432,http://lifelong.samcheok.go.kr/main/,삼척문화예술회관 광장 일대,강원도 강원도 삼척시청 청석로3길 16-41,강원도 강원도 삼척시청 교동 736,37.44912555,129.1780308
1376,2023 김포 아라마린페스티벌,아라마리나 일원,2023-05-27,2023-05-28,수상레저체험+문화콘서트 등,경기도 김포시+K-water,031-999-7833,https://aramarinefestival.com,,,경기도 김포시 고촌읍 전호리 661,37.59870927,126.7878826
1377,2023 김포 평화누리길 걷기 행사,평화누리길(김포 구간),2023-06-03,2023-06-03,걷기 프로그램+부대행사 등,경기도 김포시,031-956-8313,,,,경기도 김포시 대곶면 대명리 551-19,37.64048159,126.5409612
1382,제18회 영양산나물축제,영양군청 일원,2023-05-11,2023-05-14,판매+체험+공연+부대행사,경상북도 영양군청,054-680-6411,yftf.kr,축제 프로그램 등,경상북도 영양군 영양읍 군청길 37,경상북도 영양군 영양읍 서부리 379-1,36.66735774,129.1126844
1384,치악산배축제,원주원예농협 하나로마트광장,2023-11-01,2023-11-01,지역 배 판매+품평회 등,치악산배원주시협의회,033-737-4131,,,강원도 원주시 무실로 182,강원도 원주시 단계동 803-2,37.3414432,127.9392853
1385,반계리 은행나무축제,반계리 은행나무광장,2023-11-04,2023-11-04,기획전시+체험프로그램 운영 등,반계권역창조적마을,033-000-0000,,,,강원도 원주시 문막읍 반계리 1495-1,37.2942081,127.7884224
1386,제23회 섬강축제,간현관광지 일원,2023-09-01,2023-09-03,버스킹 공연+농특산물 직거래 장터 운영 등,섬강축제위원회,033-737-5504,,,강원도 원주시 소금산길 12,강원도 원주시 지정면 간현리 1056-24,37.36457641,127.834038
1387,정서진 해넘이 행사,인천 서구 정서진,2023-12-31,2023-12-31,경관조명행사 + 체험프로그램,인천광역시 서구,032-560-5933,http://www.seo.incheon.kr/,,인천광역시 서구 정서진1로 41,인천광역시 서구 오류동 1563,37.55843603,126.6074644
1388,아라뱃길 카약축제,인천 서구 정서진,2023-05-20,2023-05-20,카약퍼레이드 + 부대행사,수자원환경산업진흥+해양소년단연맹,032-560-5933,http://www.seo.incheon.kr/,,인천광역시 서구 정서진1로 41,인천광역시 서구 오류동 1563,37.55843603,126.6074644
1395,대왕암 해맞이 축제,대왕암,2023-01-01,2023-01-01,해맞이,동울산청년회의소,,,,,울산광역시 동구 일산동 산907,0.0,0.0
1396,퓨전 국악의 향연,꽃바위문화관 3층 다목적공연장,2023-05-19,2023-05-19,국악,울산광역시 동구,052-209-4330,,,울산광역시 동구 문현3길 6,울산광역시 동구 방어동 1120-1,35.48705813,129.4112633
